#------------------------------------------------------------------------------
#	  Created by	:	
#	  Created on	:	19-1/-19  
#------------------------------------------------------------------------------
~VERSION INFORMATION
VERS. 2.0 : CWLS Log ASCII Standard - version 2.0
WRAP.  NO : One line per depth step
~WELL INFORMATION
#MNEMONIC   .UNIT                                         VALUE :DESCRIPTION
#------------------------------------------------------------------------------
STRT        .FT                                        106.5000 :START DEPTH
STOP        .FT                                       5877.5000 :STOP DEPTH
STEP        .FT                                          0.5000 :STEP
NULL        .                                         -999.2500 :NULL
COMP        .                      HUSKY OIL NPR OPERATIONS INC :COMPANY
WELL        .                                        KOLUKTAK 1 :WELL
FLD         .                                                   :FIELD
LOC         .                                          UNKNOWN  :LOCATION
CNTY        .                                          UNKNOWN  :LOCATION
STAT        .                                          UNKNOWN  :STATE
CTRY        .                                          UNKNOWN  :COUNTRY
SRVC        .                                          UNKNOWN  :SERVICE COMPANY
DATE        .                                          19-1/-19 :LOG DATE
API         .                                    50119200010000 :API NUMBER
XCOORD      .                                     -84035.982000 :SURFACE X
YCOORD      .                                    5780930.296000 :SURFACE Y
LAT         .                                         69.752392 :LATITUDE
LON         .                                       -154.611139 :LONGITUDE
ELEV        .FT                                     -999.250000 :SURFACE ELEV
ELEV_TYPE   .                                      -999.250000KB :ELEV TYPE
~PARAMETER INFORMATION                                                          
#MNEM.UNIT        VALUE   DESCRIPTION                                           
#---------      --------  -----------                                           
ELEV    .F          313.0: KB ELEVATION                                         
TDD     .F      5877.5000: TOTAL DEPTH DRILLED
~OTHER INFORMATION                                                              
FLS0    .          CIRC                                                         
LGD0    .          10/15/76                                                     
MT0     .          GEL                                                          
FLS0    .          FLOWLONE                                                     
LGD0    .          12/24/76                                                     
MT0     .          GEL/DRISPAC                                                  
FLS0    .          FLOWLINE                                                     
LGD0    .          03/08/77                                                     
MT0     .          GEL-XP-20                                                    
FLS0    .          FLOWLINE                                                     
LGD0    .          03/15/77                                                     
MT0     .          GEL/XP-20   
~CURVE INFORMATION  
#MNEMONIC.UNIT               API CODE: CURVE DESCRIPTION
#------------------------------------------------------------------------------
DEPTH    .FT                  UNKNOWN: Measured Depth
CALI     .                    UNKNOWN: 
CNS      .                    UNKNOWN: 
DT       .                    UNKNOWN: 
GR       .GAPI                UNKNOWN: 
ILD      .OHMM                UNKNOWN: 
ILM      .OHMM                UNKNOWN: 
LL8      .                    UNKNOWN: 
LLD      .                    UNKNOWN: 
LLS      .                    UNKNOWN: 
RHOB     .                    UNKNOWN: 
SP       .MV                  UNKNOWN: 
~A      DEPTH         CALI          CNS           DT           GR          ILD          ILM          LL8          LLD          LLS         RHOB           SP
# ...
    1789.5000       9.0860      29.2940      81.0760      49.2480    -999.2500    -999.2500    -999.2500      20.5160      15.1410       2.4180    -999.2500
    1790.0000       8.8850      29.5470      81.6210      50.0570    -999.2500    -999.2500    -999.2500      20.1410      13.3130       2.4260    -999.2500
    1790.5000       8.4910      29.6350      82.3660      51.2700    -999.2500    -999.2500    -999.2500      20.1410      12.3670       2.4350    -999.2500
    1791.0000       8.9290      29.6010      83.1100      52.4240    -999.2500    -999.2500    -999.2500      22.5000      14.3280       2.4440    -999.2500
    1791.5000       8.9110      29.3960      83.6470      49.9880    -999.2500    -999.2500    -999.2500      18.7190      15.7110       2.4180    -999.2500
    1792.0000       8.6260      28.9040      83.7000      47.1930    -999.2500    -999.2500    -999.2500      26.5780      14.8670       2.4190    -999.2500
    1792.5000       8.5240      28.0570      83.7530      45.4880    -999.2500    -999.2500    -999.2500      22.0940      11.7030       2.4240    -999.2500
    1793.0000       8.5820      27.4070      83.9010      44.7830    -999.2500    -999.2500    -999.2500      18.3750      12.5940       2.4180    -999.2500
    1793.5000       8.6390      27.6890      84.4070      44.0770    -999.2500    -999.2500    -999.2500      17.0630      12.1410       2.4110    -999.2500
    1794.0000       8.7120      27.7870      84.8350      43.3710    -999.2500    -999.2500    -999.2500      13.9300      10.8670       2.4050    -999.2500
    1794.5000       8.6950      27.6870      84.5540      42.6660    -999.2500    -999.2500    -999.2500      24.6880      10.4770       2.4120    -999.2500
    1795.0000       8.5680      27.6440      84.2910      41.8120    -999.2500    -999.2500    -999.2500      17.7030      11.0700       2.4390    -999.2500
    1795.5000       8.5000      27.7580      84.1720      40.7880    -999.2500    -999.2500    -999.2500      11.1640       9.5550       2.4380    -999.2500
    1796.0000       8.8620      28.1770      84.0530      41.4760    -999.2500    -999.2500    -999.2500      12.9380      10.6720       2.4180    -999.2500
    1796.5000       8.4700      28.4260      83.9250      43.3100    -999.2500    -999.2500    -999.2500      21.6880      10.6720       2.4240    -999.2500
    1797.0000       8.8820      28.4150      83.7660      42.8220    -999.2500    -999.2500    -999.2500      26.0940      10.0940       2.3970    -999.2500
    1797.5000       8.8380      28.2320      83.6070      42.2320    -999.2500    -999.2500    -999.2500      18.0310      11.0700       2.3860    -999.2500
    1798.0000       8.9340      27.8340      83.4600      41.3710    -999.2500    -999.2500    -999.2500      22.5000      11.0700       2.4070    -999.2500
    1798.5000       9.0250      27.6640      83.4340      40.5100    -999.2500    -999.2500    -999.2500      19.4220      10.8670       2.4190    -999.2500
    1799.0000       8.5730      27.8050      83.4090      39.6490    -999.2500    -999.2500    -999.2500      14.7190      11.0700       2.4280    -999.2500
    1799.5000       8.5420      28.0310      83.3830      38.9560    -999.2500    -999.2500    -999.2500      12.7030      11.0700       2.4020    -999.2500
    1800.0000       8.5110      28.2090      83.3250      38.6300    -999.2500    -999.2500    -999.2500      17.0630      10.2810       2.3960    -999.2500
    1800.5000       8.6270      28.3580      83.2700      38.3030    -999.2500    -999.2500    -999.2500      24.6880      10.2810       2.3990    -999.2500
    1801.0000       8.7770      28.5070      83.2140      38.4110    -999.2500    -999.2500    -999.2500      30.2340      10.0940       2.3900    -999.2500
    1801.5000       8.8200      28.6570      83.0460      38.8830    -999.2500    -999.2500    -999.2500      20.5160      10.2810       2.3820    -999.2500
    1802.0000       8.6600      28.2690      82.8450      39.9580    -999.2500    -999.2500    -999.2500      18.3750      10.0940       2.3790    -999.2500
    1802.5000       8.5220      27.9090      82.5200      40.8860    -999.2500    -999.2500    -999.2500      16.7500      10.0940       2.3770    -999.2500
    1803.0000       8.6210      27.6460      82.1410      40.8470    -999.2500    -999.2500    -999.2500      15.5630       9.9140       2.3760    -999.2500
    1803.5000       8.9720      27.3820      81.7140      40.8080    -999.2500    -999.2500    -999.2500      14.4530       9.9140       2.3770    -999.2500
    1804.0000       8.7900      27.9060      81.2660      40.7700    -999.2500    -999.2500    -999.2500      16.4380      10.4770       2.3890    -999.2500
    1804.5000       8.4730      28.6740      81.4000      40.7720    -999.2500    -999.2500    -999.2500      22.9220      11.0700       2.4010    -999.2500
    1805.0000       8.5080      28.9300      81.7260      40.8120    -999.2500    -999.2500    -999.2500      20.9060      11.4840       2.4290    -999.2500
    1805.5000       8.8430      28.8280      82.0530      41.3420    -999.2500    -999.2500    -999.2500      17.7030      11.4840       2.4590    -999.2500
    1806.0000       8.6560      28.2930      82.3800      43.8150    -999.2500    -999.2500    -999.2500      18.3750      11.4840       2.4500    -999.2500
    1806.5000       8.7490      27.7350      82.4030      45.8540    -999.2500    -999.2500    -999.2500      19.0630      11.7030       2.3880    -999.2500
    1807.0000       8.8030      27.8280      82.2710      43.5370    -999.2500    -999.2500    -999.2500      21.2970      11.4840       2.3770    -999.2500
    1807.5000       8.2710      28.1360      82.1400      41.0960    -999.2500    -999.2500    -999.2500      20.9060      11.2730       2.3890    -999.2500
    1808.0000       8.8410      28.3840      82.0950      40.3810    -999.2500    -999.2500    -999.2500      19.4220      11.2730       2.3990    -999.2500
    1808.5000       8.4840      27.8070      82.2150      41.4030    -999.2500    -999.2500    -999.2500      18.7190      11.9220       2.4080    -999.2500
    1809.0000       8.7980      28.1380      82.3350      42.1880    -999.2500    -999.2500    -999.2500      19.7810      13.3130       2.4200    -999.2500
    1809.5000       8.7660      28.6740      82.1570      43.1560    -999.2500    -999.2500    -999.2500      19.0630      13.8130       2.4290    -999.2500
    1810.0000       8.8320      28.9710      81.6880      44.2650    -999.2500    -999.2500    -999.2500      20.1410      12.3670       2.4320    -999.2500
    1810.5000       8.9460      28.2090      81.2190      41.7630    -999.2500    -999.2500    -999.2500      15.8520      11.7030       2.4330    -999.2500
    1811.0000       8.9720      27.7440      80.7500      40.1980    -999.2500    -999.2500    -999.2500      17.7030      11.7030       2.4130    -999.2500
    1811.5000       9.0040      27.3480      80.2810      41.4630    -999.2500    -999.2500    -999.2500      20.1410      14.0700       2.4060    -999.2500
    1812.0000       8.7240      27.0950      79.9930      44.0370    -999.2500    -999.2500    -999.2500      20.9060      14.8670       2.4470    -999.2500
    1812.5000       9.0030      27.0030      80.4110      43.6060    -999.2500    -999.2500    -999.2500      27.5780      15.7110       2.4550    -999.2500
    1813.0000       8.7430      26.9990      80.8280      42.8040    -999.2500    -999.2500    -999.2500      19.7810      16.2970       2.4290    -999.2500
    1813.5000       8.9040      27.4000      81.2450      42.5380    -999.2500    -999.2500    -999.2500      18.3750      14.5940       2.4370    -999.2500
    1814.0000       9.0730      27.8540      81.4650      42.6150    -999.2500    -999.2500    -999.2500      22.9220      13.8130       2.4450    -999.2500
    1814.5000       8.8710      28.3720      81.6750      42.6920    -999.2500    -999.2500    -999.2500      22.5000      14.3280       2.4260    -999.2500
