#------------------------------------------------------------------------------
#	  Created by	:	
#	  Created on	:	19-1/-19  
#------------------------------------------------------------------------------
~VERSION INFORMATION
VERS. 2.0 : CWLS Log ASCII Standard - version 2.0
WRAP.  NO : One line per depth step
~WELL INFORMATION
#MNEMONIC   .UNIT                                         VALUE :DESCRIPTION
#------------------------------------------------------------------------------
STRT        .FT                                        106.5000 :START DEPTH
STOP        .FT                                       5877.5000 :STOP DEPTH
STEP        .FT                                          0.5000 :STEP
NULL        .                                         -999.2500 :NULL
COMP        .                      HUSKY OIL NPR OPERATIONS INC :COMPANY
WELL        .                                        KOLUKTAK 1 :WELL
FLD         .                                                   :FIELD
LOC         .                                          UNKNOWN  :LOCATION
CNTY        .                                          UNKNOWN  :LOCATION
STAT        .                                          UNKNOWN  :STATE
CTRY        .                                          UNKNOWN  :COUNTRY
SRVC        .                                          UNKNOWN  :SERVICE COMPANY
DATE        .                                          19-1/-19 :LOG DATE
API         .                                    50119200010000 :API NUMBER
XCOORD      .                                     -84035.982000 :SURFACE X
YCOORD      .                                    5780930.296000 :SURFACE Y
LAT         .                                         69.752392 :LATITUDE
LON         .                                       -154.611139 :LONGITUDE
ELEV        .FT                                     -999.250000 :SURFACE ELEV
ELEV_TYPE   .                                      -999.250000KB :ELEV TYPE
~PARAMETER INFORMATION                                                          
#MNEM.UNIT        VALUE   DESCRIPTION                                           
#---------      --------  -----------                                           
ELEV    .F          313.0: KB ELEVATION                                         
TDD     .F      5877.5000: TOTAL DEPTH DRILLED
~OTHER INFORMATION                                                              
FLS0    .          CIRC                                                         
LGD0    .          10/15/76                                                     
MT0     .          GEL                                                          
FLS0    .          FLOWLONE                                                     
LGD0    .          12/24/76                                                     
MT0     .          GEL/DRISPAC                                                  
FLS0    .          FLOWLINE                                                     
LGD0    .          03/08/77                                                     
MT0     .          GEL-XP-20                                                    
FLS0    .          FLOWLINE                                                     
LGD0    .          03/15/77                                                     
MT0     .          GEL/XP-20   
~CURVE INFORMATION  
#MNEMONIC.UNIT               API CODE: CURVE DESCRIPTION
#------------------------------------------------------------------------------
DEPTH    .FT                  UNKNOWN: Measured Depth
CALI     .                    UNKNOWN: 
CNS      .                    UNKNOWN: 
DT       .                    UNKNOWN: 
GR       .GAPI                UNKNOWN: 
ILD      .OHMM                UNKNOWN: 
ILM      .OHMM                UNKNOWN: 
LL8      .                    UNKNOWN: 
LLD      .                    UNKNOWN: 
LLS      .                    UNKNOWN: 
RHOB     .                    UNKNOWN: 
SP       .MV                  UNKNOWN: 
~A      DEPTH         CALI          CNS           DT           GR          ILD          ILM          LL8          LLD          LLS         RHOB           SP
# ...
     795.0000      12.7910      27.8440      95.1810      76.5260      15.5810      34.5340      41.3070    -999.2500    -999.2500       2.4950      43.5120
     795.5000      12.8090      28.2400      95.3900      77.6590      15.5810      32.9770      34.0430    -999.2500    -999.2500       2.4660      45.0120
     796.0000      12.8270      28.4450      95.5980      78.2900      15.7250      34.5340      27.2920    -999.2500    -999.2500       2.4760      46.7620
     796.5000      12.8440      28.4180      97.0300      75.4000      15.8710      38.9330      29.1100    -999.2500    -999.2500       2.4860      46.2620
     797.0000      12.8420      28.3910      98.5950      73.4440      16.1660      41.5300      41.6890    -999.2500    -999.2500       2.4980      44.2620
     797.5000      12.8410      28.8480     100.1130      74.1430      16.1660      42.6950      52.0020    -999.2500    -999.2500       2.4740      42.5120
     798.0000      12.8360      29.6030     101.7030      75.3920      15.8710      41.1480      51.0530    -999.2500    -999.2500       2.4670      41.7630
     798.5000      12.8210      30.7340     100.9550      76.9780      15.7250      40.7710      44.8770    -999.2500    -999.2500       2.4830      41.5130
     799.0000      12.8080      31.2610      99.6750      78.5120      16.0180      40.3960      39.8130    -999.2500    -999.2500       2.4880      41.5130
     799.5000      12.8000      30.2250      99.2930      74.2820      16.3160      40.3960      38.0210    -999.2500    -999.2500       2.4680      41.2630
     800.0000      12.7920      29.6220      99.8150      68.5470      16.1660      38.9330      39.4480    -999.2500    -999.2500       2.4480      40.7630
     800.5000      12.7840      29.1990      99.8630      65.7890      16.1660      37.1780      39.8130    -999.2500    -999.2500       2.4370      39.7630
     801.0000      12.7800      29.3250      99.0640      65.7180      15.8710      36.4990      35.9770    -999.2500    -999.2500       2.4280      39.0130
     801.5000      12.7920      30.1510      98.2120      66.2760      15.8710      36.1640      33.4220    -999.2500    -999.2500       2.4440      38.5130
     802.0000      12.8040      30.9780      97.4660      66.8830      16.0180      37.8710      32.8120    -999.2500    -999.2500       2.4550      39.0130
     802.5000      12.8160      31.2820      97.0930      67.7160      16.1660      40.3960      35.6470    -999.2500    -999.2500       2.4470      40.0130
     803.0000      12.8280      30.6290      97.6520      68.5490      16.3160      41.5300      44.8770    -999.2500    -999.2500       2.4390      39.5130
     803.5000      12.8400      30.0460      98.2110      65.6910      16.3160      41.1480      49.6610    -999.2500    -999.2500       2.4570      37.5130
     804.0000      12.8520      29.4890      98.7370      63.7640      16.4670      40.0260      43.2540    -999.2500    -999.2500       2.4750      36.7630
     804.5000      12.8980      28.9090      97.9090      62.7560      16.7730      41.1480      41.6890    -999.2500    -999.2500       2.4840      36.7630
     805.0000      12.8850      28.2140      97.0820      62.1270      17.0850      43.8930      45.7110    -999.2500    -999.2500       2.4680      37.2630
     805.5000      12.8720      27.5190      96.0880      64.8190      17.4030      45.9650      50.5850    -999.2500    -999.2500       2.4630      37.7630
     806.0000      12.8590      26.9950      94.9920      64.9750      17.2430      46.3910      52.9680    -999.2500    -999.2500       2.4680      38.7630
     806.5000      12.8450      26.7530      93.8960      65.6290      17.0850      44.3000      50.5850    -999.2500    -999.2500       2.4510      39.5130
     807.0000      12.8320      26.5110      92.9570      67.0930      16.9280      43.0910      44.4650    -999.2500    -999.2500       2.4660      40.0130
     807.5000      12.8180      26.8270      92.2520      67.4290      16.4670      40.3960      44.0580    -999.2500    -999.2500       2.4870      41.0130
     808.0000      12.8150      27.6680      91.8290      65.0550      15.2960      31.2020      46.1340    -999.2500    -999.2500       2.5090      42.5120
     808.5000      12.8290      28.5090      95.0970      62.9940      14.2090      22.8020      33.1150    -999.2500    -999.2500       2.4950      44.2620
     809.0000      12.8430      29.3500      97.8530      64.5990      13.0790      18.2740      18.1990    -999.2500    -999.2500       2.4790      46.7620
     809.5000      12.8640      31.7650     103.5970      66.6430      12.1490      17.1320      13.8060    -999.2500    -999.2500       2.4530      46.7620
     810.0000      12.8990      34.2810     109.1930      68.1560      11.2860      15.6220      16.1460    -999.2500    -999.2500       2.4270      45.5120
     810.5000      12.9330      36.7970     114.7410      70.8950      10.6790      13.9850      16.9060    -999.2500    -999.2500       2.4510      45.0120
     811.0000      12.9320      39.3120     113.7400      76.5140      10.1040      13.2320      13.1840    -999.2500    -999.2500       2.4680      46.2620
     811.5000      12.9050      41.8280     112.5710      81.4250       9.8290      13.9850      13.0630    -999.2500    -999.2500       2.4800      46.7620
     812.0000      12.8600      44.3440     109.8700      85.0070       9.7390      14.6450      15.5610    -999.2500    -999.2500       2.5080      47.2620
     812.5000      12.7760      43.0950     105.9260      86.3740       9.7390      14.6450      16.9060    -999.2500    -999.2500       2.5440      47.7620
     813.0000      12.9190      41.7570     110.5210      84.7530       9.6500      14.5110      16.1460    -999.2500    -999.2500       2.5530      48.5110
     813.5000      13.0620      40.4230     107.1540      83.1330       9.7390      14.3780      15.4190    -999.2500    -999.2500       2.4750      49.0110
     814.0000      13.0500      38.5080     103.1560      81.7900       9.8290      14.2460      14.5900    -999.2500    -999.2500       2.4650      49.7610
     814.5000      13.0190      36.7650     100.8510      81.5710       9.8290      13.8570      13.8060    -999.2500    -999.2500       2.5070      50.7610
     815.0000      13.0440      37.9820     103.3350      81.3520       9.8290      13.3550      13.4290    -999.2500    -999.2500       2.5050      52.5110
     815.5000      13.0940      39.3610     105.0790      82.8290       9.8290      13.2320      12.9440    -999.2500    -999.2500       2.4990      53.7610
     816.0000      13.1430      41.0510     107.0140      85.3890       9.8290      13.6040      12.5910    -999.2500    -999.2500       2.5100      53.2610
     816.5000      13.2110      42.6510     110.0090      87.7070       9.7390      14.1150      14.0620    -999.2500    -999.2500       2.5010      53.0110
     817.0000      13.2800      43.4960     111.5900      89.1820       9.7390      14.3780      15.5610    -999.2500    -999.2500       2.4820      52.5110
     817.5000      13.3490      43.7020     109.5040      85.8090       9.8290      14.5110      16.1460    -999.2500    -999.2500       2.4550      52.5110
     818.0000      13.4180      43.8290     105.8940      81.8810      10.0120      14.9180      15.7050    -999.2500    -999.2500       2.4800      52.7610
     818.5000      13.4180      43.9140     101.4910      78.2010      10.2920      15.7670      15.2780    -999.2500    -999.2500       2.4960      53.0110
     819.0000      13.0770      41.4970      99.2140      74.8350      10.6790      16.9740      15.4190    -999.2500    -999.2500       2.5240      53.5110
     819.5000      13.1730      40.7630      99.7540      71.7100      10.9780      18.6150      16.2950    -999.2500    -999.2500       2.5360      53.7610
     820.0000      13.3330      40.3240     100.5350      70.5820      11.3900      20.0400      17.7030    -999.2500    -999.2500       2.5250      54.2600
