#------------------------------------------------------------------------------
#	  Created by	:	
#	  Created on	:	19-1/-19  
#------------------------------------------------------------------------------
~VERSION INFORMATION
VERS. 2.0 : CWLS Log ASCII Standard - version 2.0
WRAP.  NO : One line per depth step
~WELL INFORMATION
#MNEMONIC   .UNIT                                         VALUE :DESCRIPTION
#------------------------------------------------------------------------------
STRT        .FT                                        106.5000 :START DEPTH
STOP        .FT                                       5877.5000 :STOP DEPTH
STEP        .FT                                          0.5000 :STEP
NULL        .                                         -999.2500 :NULL
COMP        .                      HUSKY OIL NPR OPERATIONS INC :COMPANY
WELL        .                                        KOLUKTAK 1 :WELL
FLD         .                                                   :FIELD
LOC         .                                          UNKNOWN  :LOCATION
CNTY        .                                          UNKNOWN  :LOCATION
STAT        .                                          UNKNOWN  :STATE
CTRY        .                                          UNKNOWN  :COUNTRY
SRVC        .                                          UNKNOWN  :SERVICE COMPANY
DATE        .                                          19-1/-19 :LOG DATE
API         .                                    50119200010000 :API NUMBER
XCOORD      .                                     -84035.982000 :SURFACE X
YCOORD      .                                    5780930.296000 :SURFACE Y
LAT         .                                         69.752392 :LATITUDE
LON         .                                       -154.611139 :LONGITUDE
ELEV        .FT                                     -999.250000 :SURFACE ELEV
ELEV_TYPE   .                                      -999.250000KB :ELEV TYPE
~PARAMETER INFORMATION                                                          
#MNEM.UNIT        VALUE   DESCRIPTION                                           
#---------      --------  -----------                                           
ELEV    .F          313.0: KB ELEVATION                                         
TDD     .F      5877.5000: TOTAL DEPTH DRILLED
~OTHER INFORMATION                                                              
FLS0    .          CIRC                                                         
LGD0    .          10/15/76                                                     
MT0     .          GEL                                                          
FLS0    .          FLOWLONE                                                     
LGD0    .          12/24/76                                                     
MT0     .          GEL/DRISPAC                                                  
FLS0    .          FLOWLINE                                                     
LGD0    .          03/08/77                                                     
MT0     .          GEL-XP-20                                                    
FLS0    .          FLOWLINE                                                     
LGD0    .          03/15/77                                                     
MT0     .          GEL/XP-20   
~CURVE INFORMATION  
#MNEMONIC.UNIT               API CODE: CURVE DESCRIPTION
#------------------------------------------------------------------------------
DEPTH    .FT                  UNKNOWN: Measured Depth
CALI     .                    UNKNOWN: 
CNS      .                    UNKNOWN: 
DT       .                    UNKNOWN: 
GR       .GAPI                UNKNOWN: 
ILD      .OHMM                UNKNOWN: 
ILM      .OHMM                UNKNOWN: 
LL8      .                    UNKNOWN: 
LLD      .                    UNKNOWN: 
LLS      .                    UNKNOWN: 
RHOB     .                    UNKNOWN: 
SP       .MV                  UNKNOWN: 
~A      DEPTH         CALI          CNS           DT           GR          ILD          ILM          LL8          LLD          LLS         RHOB           SP
# ...
    3447.0000      13.1130      35.2250      87.8600      79.6400    -999.2500    -999.2500    -999.2500      13.9300      11.0700       2.5690    -999.2500
    3447.5000      13.1650      35.3170      87.5170      79.7200    -999.2500    -999.2500    -999.2500      13.9300      11.7030       2.5780    -999.2500
    3448.0000      13.1150      35.4340      88.3890      79.8530    -999.2500    -999.2500    -999.2500      14.7190      12.1410       2.6000    -999.2500
    3448.5000      13.1990      35.5470      89.3020      80.8160    -999.2500    -999.2500    -999.2500      15.5630      12.5940       2.5880    -999.2500
    3449.0000      13.2170      35.0840      90.2140      82.2270    -999.2500    -999.2500    -999.2500      15.5630      13.3130       2.5810    -999.2500
    3449.5000      13.1930      34.6250      90.8610      82.5220    -999.2500    -999.2500    -999.2500      15.5630      12.5940       2.5750    -999.2500
    3450.0000      13.1410      34.8080      91.3960      82.5650    -999.2500    -999.2500    -999.2500      15.0000      12.1410       2.5700    -999.2500
    3450.5000      13.0880      35.2810      91.9520      77.9270    -999.2500    -999.2500    -999.2500      14.1880      11.2730       2.5650    -999.2500
    3451.0000      13.1020      35.7550      90.8010      77.0270    -999.2500    -999.2500    -999.2500      13.4220      11.0700       2.5570    -999.2500
    3451.5000      13.1460      36.2280      89.2370      76.0800    -999.2500    -999.2500    -999.2500      13.4220      11.0700       2.5420    -999.2500
    3452.0000      13.1910      35.7540      87.6730      75.4650    -999.2500    -999.2500    -999.2500      13.9300      11.4840       2.5710    -999.2500
    3452.5000      13.1810      35.1000      86.4620      75.5300    -999.2500    -999.2500    -999.2500      14.7190      12.3670       2.5860    -999.2500
    3453.0000      13.1300      34.6470      85.9270      75.5950    -999.2500    -999.2500    -999.2500      15.0000      12.8280       2.5990    -999.2500
    3453.5000      13.0870      34.4670      86.5070      75.5800    -999.2500    -999.2500    -999.2500      16.7500      13.5630       2.5930    -999.2500
    3454.0000      13.0430      33.9550      87.1230      74.8690    -999.2500    -999.2500    -999.2500      16.7500      13.8130       2.6070    -999.2500
    3454.5000      13.0590      33.4990      87.7390      73.9870    -999.2500    -999.2500    -999.2500      16.7500      13.8130       2.5790    -999.2500
    3455.0000      13.1310      33.0680      88.3550      72.5810    -999.2500    -999.2500    -999.2500      16.7500      13.5630       2.5880    -999.2500
    3455.5000      13.1680      33.5270      88.9050      71.3430    -999.2500    -999.2500    -999.2500      15.8520      12.8280       2.5730    -999.2500
    3456.0000      13.1720      34.1710      89.4490      71.3350    -999.2500    -999.2500    -999.2500      15.5630      12.3670       2.5770    -999.2500
    3456.5000      13.1760      34.5040      88.8010      75.0070    -999.2500    -999.2500    -999.2500      15.5630      11.7030       2.5810    -999.2500
    3457.0000      13.1590      34.6800      87.8720      77.8970    -999.2500    -999.2500    -999.2500      14.7190      11.4840       2.5590    -999.2500
    3457.5000      13.1710      34.6410      86.9440      79.6370    -999.2500    -999.2500    -999.2500      14.4530      11.2730       2.5700    -999.2500
    3458.0000      13.2050      34.4560      87.0290      81.3770    -999.2500    -999.2500    -999.2500      15.0000      12.1410       2.5600    -999.2500
    3458.5000      13.2390      34.1370      87.1170      82.4820    -999.2500    -999.2500    -999.2500      15.8520      13.0700       2.5730    -999.2500
    3459.0000      13.2340      33.7940      87.2040      83.5140    -999.2500    -999.2500    -999.2500      16.4380      13.0700       2.5910    -999.2500
    3459.5000      13.2050      33.5720      87.2400      84.5470    -999.2500    -999.2500    -999.2500      16.4380      13.0700       2.6170    -999.2500
    3460.0000      13.1340      33.4350      87.0660      85.3320    -999.2500    -999.2500    -999.2500      16.1410      13.0700       2.6230    -999.2500
    3460.5000      13.1270      33.4190      86.8920      85.6020    -999.2500    -999.2500    -999.2500      16.1410      13.3130       2.5950    -999.2500
    3461.0000      13.1520      33.4300      86.7180      85.8530    -999.2500    -999.2500    -999.2500      16.1410      13.3130       2.6140    -999.2500
    3461.5000      13.1830      33.2020      86.8240      85.7560    -999.2500    -999.2500    -999.2500      16.1410      13.3130       2.5940    -999.2500
    3462.0000      13.2150      32.8070      87.1980      85.6600    -999.2500    -999.2500    -999.2500      15.8520      13.0700       2.5580    -999.2500
    3462.5000      13.2210      32.7400      87.5720      85.0550    -999.2500    -999.2500    -999.2500      16.1410      13.3130       2.5670    -999.2500
    3463.0000      13.2240      32.9410      87.4570      83.5070    -999.2500    -999.2500    -999.2500      16.1410      13.3130       2.5740    -999.2500
    3463.5000      13.2310      33.1250      86.7120      82.2420    -999.2500    -999.2500    -999.2500      16.7500      13.3130       2.5470    -999.2500
    3464.0000      13.2380      33.3080      85.9670      80.9960    -999.2500    -999.2500    -999.2500      17.0630      13.5630       2.5350    -999.2500
    3464.5000      13.2570      33.4920      85.6020      80.6330    -999.2500    -999.2500    -999.2500      17.3750      13.5630       2.5540    -999.2500
    3465.0000      13.2870      33.6750      85.5010      81.7350    -999.2500    -999.2500    -999.2500      17.3750      13.5630       2.5730    -999.2500
    3465.5000      13.3170      33.2440      86.1130      82.8370    -999.2500    -999.2500    -999.2500      17.3750      13.8130       2.5800    -999.2500
    3466.0000      13.2330      32.7840      86.7260      84.0490    -999.2500    -999.2500    -999.2500      17.3750      13.8130       2.5870    -999.2500
    3466.5000      13.1440      32.3240      86.7350      84.3690    -999.2500    -999.2500    -999.2500      17.3750      14.0700       2.5870    -999.2500
    3467.0000      13.1560      31.8410      86.3250      84.9310    -999.2500    -999.2500    -999.2500      17.7030      14.0700       2.5870    -999.2500
    3467.5000      13.1680      31.9670      85.9160      86.4600    -999.2500    -999.2500    -999.2500      17.7030      14.3280       2.5720    -999.2500
    3468.0000      13.1800      32.3320      85.5060      85.7740    -999.2500    -999.2500    -999.2500      17.7030      14.5940       2.5410    -999.2500
    3468.5000      13.2050      32.6500      85.2520      88.0020    -999.2500    -999.2500    -999.2500      18.0310      14.5940       2.5560    -999.2500
    3469.0000      13.2220      32.4820      85.0000      90.6010    -999.2500    -999.2500    -999.2500      18.0310      14.5940       2.5820    -999.2500
    3469.5000      13.1930      32.3190      84.7480      91.5880    -999.2500    -999.2500    -999.2500      18.0310      14.5940       2.5860    -999.2500
    3470.0000      13.1630      32.5060      84.4960      89.4940    -999.2500    -999.2500    -999.2500      18.3750      14.8670       2.5800    -999.2500
    3470.5000      13.1610      32.5650      84.2210      87.9740    -999.2500    -999.2500    -999.2500      18.0310      14.8670       2.5730    -999.2500
    3471.0000      13.1650      32.1530      83.9220      90.7900    -999.2500    -999.2500    -999.2500      18.0310      15.1410       2.5680    -999.2500
    3471.5000      13.1700      31.9140      84.4960      90.4530    -999.2500    -999.2500    -999.2500      18.7190      15.1410       2.5620    -999.2500
    3472.0000      13.1730      32.4790      85.5350      85.0360    -999.2500    -999.2500    -999.2500      19.0630      15.1410       2.5570    -999.2500
