#------------------------------------------------------------------------------
#	  Created by	:	
#	  Created on	:	19-1/-19  
#------------------------------------------------------------------------------
~VERSION INFORMATION
VERS. 2.0 : CWLS Log ASCII Standard - version 2.0
WRAP.  NO : One line per depth step
~WELL INFORMATION
#MNEMONIC   .UNIT                                         VALUE :DESCRIPTION
#------------------------------------------------------------------------------
STRT        .FT                                        106.5000 :START DEPTH
STOP        .FT                                       5877.5000 :STOP DEPTH
STEP        .FT                                          0.5000 :STEP
NULL        .                                         -999.2500 :NULL
COMP        .                      HUSKY OIL NPR OPERATIONS INC :COMPANY
WELL        .                                        KOLUKTAK 1 :WELL
FLD         .                                                   :FIELD
LOC         .                                          UNKNOWN  :LOCATION
CNTY        .                                          UNKNOWN  :LOCATION
STAT        .                                          UNKNOWN  :STATE
CTRY        .                                          UNKNOWN  :COUNTRY
SRVC        .                                          UNKNOWN  :SERVICE COMPANY
DATE        .                                          19-1/-19 :LOG DATE
API         .                                    50119200010000 :API NUMBER
XCOORD      .                                     -84035.982000 :SURFACE X
YCOORD      .                                    5780930.296000 :SURFACE Y
LAT         .                                         69.752392 :LATITUDE
LON         .                                       -154.611139 :LONGITUDE
ELEV        .FT                                     -999.250000 :SURFACE ELEV
ELEV_TYPE   .                                      -999.250000KB :ELEV TYPE
~PARAMETER INFORMATION                                                          
#MNEM.UNIT        VALUE   DESCRIPTION                                           
#---------      --------  -----------                                           
ELEV    .F          313.0: KB ELEVATION                                         
TDD     .F      5877.5000: TOTAL DEPTH DRILLED
~OTHER INFORMATION                                                              
FLS0    .          CIRC                                                         
LGD0    .          10/15/76                                                     
MT0     .          GEL                                                          
FLS0    .          FLOWLONE                                                     
LGD0    .          12/24/76                                                     
MT0     .          GEL/DRISPAC                                                  
FLS0    .          FLOWLINE                                                     
LGD0    .          03/08/77                                                     
MT0     .          GEL-XP-20                                                    
FLS0    .          FLOWLINE                                                     
LGD0    .          03/15/77                                                     
MT0     .          GEL/XP-20   
~CURVE INFORMATION  
#MNEMONIC.UNIT               API CODE: CURVE DESCRIPTION
#------------------------------------------------------------------------------
DEPTH    .FT                  UNKNOWN: Measured Depth
CALI     .                    UNKNOWN: 
CNS      .                    UNKNOWN: 
DT       .                    UNKNOWN: 
GR       .GAPI                UNKNOWN: 
ILD      .OHMM                UNKNOWN: 
ILM      .OHMM                UNKNOWN: 
LL8      .                    UNKNOWN: 
LLD      .                    UNKNOWN: 
LLS      .                    UNKNOWN: 
RHOB     .                    UNKNOWN: 
SP       .MV                  UNKNOWN: 
~A      DEPTH         CALI          CNS           DT           GR          ILD          ILM          LL8          LLD          LLS         RHOB           SP
# ...
    3778.5000      12.1660      31.8610      80.9670      61.7570    -999.2500    -999.2500    -999.2500      17.0630      14.3280       2.5430    -999.2500
    3779.0000      12.1980      32.1360      82.0230      61.8920    -999.2500    -999.2500    -999.2500      17.0630      15.4220       2.5220    -999.2500
    3779.5000      12.2310      32.4100      83.0790      62.0270    -999.2500    -999.2500    -999.2500      18.0310      16.9060       2.5270    -999.2500
    3780.0000      12.3770      32.3710      83.5150      62.6720    -999.2500    -999.2500    -999.2500      18.0310      16.2970       2.4860    -999.2500
    3780.5000      12.8130      32.1550      83.7220      63.6290    -999.2500    -999.2500    -999.2500      18.0310      16.2970       2.4680    -999.2500
    3781.0000      13.2660      33.7350      83.9300      64.5850    -999.2500    -999.2500    -999.2500      18.0310      16.0000       2.4270    -999.2500
    3781.5000      13.5650      35.3140      84.4870      65.5800    -999.2500    -999.2500    -999.2500      17.0630      15.4220       2.4090    -999.2500
    3782.0000      13.4490      37.4350      86.7980      66.3010    -999.2500    -999.2500    -999.2500      16.4380      14.8670       2.4070    -999.2500
    3782.5000      14.1330      37.0750      90.7820      65.6190    -999.2500    -999.2500    -999.2500      16.4380      14.3280       2.4370    -999.2500
    3783.0000      14.4620      36.6840      88.7550      64.9370    -999.2500    -999.2500    -999.2500      16.4380      14.0700       2.4460    -999.2500
    3783.5000      14.0260      37.1980      84.8580      63.9520    -999.2500    -999.2500    -999.2500      15.2730      12.3670       2.3760    -999.2500
    3784.0000      13.4940      37.2800      80.8620      62.5120    -999.2500    -999.2500    -999.2500      13.4220      11.4840       2.4100    -999.2500
    3784.5000      13.1910      36.6910      80.5750      61.0720    -999.2500    -999.2500    -999.2500      11.3670      13.5630       2.4310    -999.2500
    3785.0000      12.8950      35.8640      83.1910      59.7550    -999.2500    -999.2500    -999.2500      12.7030      15.7110       2.3950    -999.2500
    3785.5000      12.9020      34.6650      88.7480      58.8730    -999.2500    -999.2500    -999.2500      15.8520      17.2190       2.4130    -999.2500
    3786.0000      13.9460      33.4670      90.1980      57.9910    -999.2500    -999.2500    -999.2500      18.0310      16.5940       2.4440    -999.2500
    3786.5000      13.8080      32.9790      86.9020      57.1950    -999.2500    -999.2500    -999.2500      18.0310      15.4220       2.4500    -999.2500
    3787.0000      13.2950      33.3280      84.7760      57.9860    -999.2500    -999.2500    -999.2500      13.4220      10.8670       2.4530    -999.2500
    3787.5000      12.8020      33.5460      80.4310      58.7770    -999.2500    -999.2500    -999.2500      13.6720      11.4840       2.4230    -999.2500
    3788.0000      12.8320      32.2420      78.6460      59.2660    -999.2500    -999.2500    -999.2500      12.0160      13.0700       2.4120    -999.2500
    3788.5000      13.0810      31.3240      78.6550      52.5380    -999.2500    -999.2500    -999.2500      13.9300      14.5940       2.4100    -999.2500
    3789.0000      13.2870      30.4150      78.8100      49.9480    -999.2500    -999.2500    -999.2500      19.7810      18.2030       2.4190    -999.2500
    3789.5000      13.0540      29.5060      78.9640      48.3680    -999.2500    -999.2500    -999.2500      23.7810      21.4840       2.4310    -999.2500
    3790.0000      12.8050      28.5960      77.5300      48.2130    -999.2500    -999.2500    -999.2500      24.2340      21.4840       2.4280    -999.2500
    3790.5000      12.7740      28.6500      77.2170      48.0570    -999.2500    -999.2500    -999.2500      24.2340      20.3280       2.4370    -999.2500
    3791.0000      12.7430      28.9790      77.0970      48.1820    -999.2500    -999.2500    -999.2500      22.9220      21.0940       2.4360    -999.2500
    3791.5000      12.9250      28.6980      76.6730      48.6450    -999.2500    -999.2500    -999.2500      23.7810      21.4840       2.4310    -999.2500
    3792.0000      13.1200      28.3600      75.5500      49.1080    -999.2500    -999.2500    -999.2500      25.6090      23.1250       2.4050    -999.2500
    3792.5000      13.6730      28.0270      75.3360      49.9420    -999.2500    -999.2500    -999.2500      27.0630      24.4530       2.4140    -999.2500
    3793.0000      13.7330      27.7700      75.1460      51.4820    -999.2500    -999.2500    -999.2500      29.6880      24.9060       2.4230    -999.2500
    3793.5000      13.3670      29.9830      79.7970      53.0210    -999.2500    -999.2500    -999.2500      24.6880      20.3280       2.4210    -999.2500
    3794.0000      13.3160      31.7870      81.8700      54.5730    -999.2500    -999.2500    -999.2500      19.7810      16.5940       2.4450    -999.2500
    3794.5000      13.2370      33.2250      82.6720      56.2000    -999.2500    -999.2500    -999.2500      18.0310      15.7110       2.4830    -999.2500
    3795.0000      13.0800      34.3210      82.3680      56.6660    -999.2500    -999.2500    -999.2500      15.8520      14.8670       2.4560    -999.2500
    3795.5000      12.9490      34.7340      78.9650      56.3040    -999.2500    -999.2500    -999.2500      16.4380      16.2970       2.4060    -999.2500
    3796.0000      13.1170      35.4110      81.9410      55.9430    -999.2500    -999.2500    -999.2500      18.7190      17.5470       2.3720    -999.2500
    3796.5000      13.3990      36.7510      83.5670      55.9170    -999.2500    -999.2500    -999.2500      18.0310      14.8670       2.3450    -999.2500
    3797.0000      12.6590      37.4790      84.9220      56.5370    -999.2500    -999.2500    -999.2500      16.1410      13.3130       2.3350    -999.2500
    3797.5000      12.5380      37.9170      85.2220      57.0470    -999.2500    -999.2500    -999.2500      14.4530      15.4220       2.4220    -999.2500
    3798.0000      12.5000      36.3130      80.0880      57.3500    -999.2500    -999.2500    -999.2500      16.1410      17.2190       2.4490    -999.2500
    3798.5000      12.3100      34.7730      77.6910      55.3440    -999.2500    -999.2500    -999.2500      17.0630      18.5470       2.4630    -999.2500
    3799.0000      12.0450      33.4250      75.3360      52.5920    -999.2500    -999.2500    -999.2500      21.2970      21.8910       2.4680    -999.2500
    3799.5000      12.0870      32.0630      73.6560      49.8400    -999.2500    -999.2500    -999.2500      28.0940      24.0000       2.4470    -999.2500
    3800.0000      12.1280      31.4000      72.5350      48.4990    -999.2500    -999.2500    -999.2500      29.1410      24.9060       2.4400    -999.2500
    3800.5000      12.1690      31.4230      73.8150      48.5090    -999.2500    -999.2500    -999.2500      30.2340      26.3130       2.4320    -999.2500
    3801.0000      12.1260      30.9850      73.6330      49.4210    -999.2500    -999.2500    -999.2500      33.1560      29.9380       2.4550    -999.2500
    3801.5000      12.0750      30.3040      72.4930      50.3330    -999.2500    -999.2500    -999.2500      34.4060      31.6410       2.4700    -999.2500
    3802.0000      12.0240      29.7170      71.5250      51.4930    -999.2500    -999.2500    -999.2500      37.0310      31.6410       2.4840    -999.2500
    3802.5000      12.0730      29.2450      70.5670      52.8780    -999.2500    -999.2500    -999.2500      37.7190      27.8130       2.5110    -999.2500
    3803.0000      12.1300      29.9320      70.2350      54.2580    -999.2500    -999.2500    -999.2500      36.3750      22.7030       2.4790    -999.2500
    3803.5000      12.1880      30.7240      73.9240      55.4890    -999.2500    -999.2500    -999.2500      29.6880      20.7030       2.4830    -999.2500
