#------------------------------------------------------------------------------
#	  Created by	:	
#	  Created on	:	19-1/-19  
#------------------------------------------------------------------------------
~VERSION INFORMATION
VERS. 2.0 : CWLS Log ASCII Standard - version 2.0
WRAP.  NO : One line per depth step
~WELL INFORMATION
#MNEMONIC   .UNIT                                         VALUE :DESCRIPTION
#------------------------------------------------------------------------------
STRT        .FT                                        106.5000 :START DEPTH
STOP        .FT                                       5877.5000 :STOP DEPTH
STEP        .FT                                          0.5000 :STEP
NULL        .                                         -999.2500 :NULL
COMP        .                      HUSKY OIL NPR OPERATIONS INC :COMPANY
WELL        .                                        KOLUKTAK 1 :WELL
FLD         .                                                   :FIELD
LOC         .                                          UNKNOWN  :LOCATION
CNTY        .                                          UNKNOWN  :LOCATION
STAT        .                                          UNKNOWN  :STATE
CTRY        .                                          UNKNOWN  :COUNTRY
SRVC        .                                          UNKNOWN  :SERVICE COMPANY
DATE        .                                          19-1/-19 :LOG DATE
API         .                                    50119200010000 :API NUMBER
XCOORD      .                                     -84035.982000 :SURFACE X
YCOORD      .                                    5780930.296000 :SURFACE Y
LAT         .                                         69.752392 :LATITUDE
LON         .                                       -154.611139 :LONGITUDE
ELEV        .FT                                     -999.250000 :SURFACE ELEV
ELEV_TYPE   .                                      -999.250000KB :ELEV TYPE
~PARAMETER INFORMATION                                                          
#MNEM.UNIT        VALUE   DESCRIPTION                                           
#---------      --------  -----------                                           
ELEV    .F          313.0: KB ELEVATION                                         
TDD     .F      5877.5000: TOTAL DEPTH DRILLED
~OTHER INFORMATION                                                              
FLS0    .          CIRC                                                         
LGD0    .          10/15/76                                                     
MT0     .          GEL                                                          
FLS0    .          FLOWLONE                                                     
LGD0    .          12/24/76                                                     
MT0     .          GEL/DRISPAC                                                  
FLS0    .          FLOWLINE                                                     
LGD0    .          03/08/77                                                     
MT0     .          GEL-XP-20                                                    
FLS0    .          FLOWLINE                                                     
LGD0    .          03/15/77                                                     
MT0     .          GEL/XP-20   
~CURVE INFORMATION  
#MNEMONIC.UNIT               API CODE: CURVE DESCRIPTION
#------------------------------------------------------------------------------
DEPTH    .FT                  UNKNOWN: Measured Depth
CALI     .                    UNKNOWN: 
CNS      .                    UNKNOWN: 
DT       .                    UNKNOWN: 
GR       .GAPI                UNKNOWN: 
ILD      .OHMM                UNKNOWN: 
ILM      .OHMM                UNKNOWN: 
LL8      .                    UNKNOWN: 
LLD      .                    UNKNOWN: 
LLS      .                    UNKNOWN: 
RHOB     .                    UNKNOWN: 
SP       .MV                  UNKNOWN: 
~A      DEPTH         CALI          CNS           DT           GR          ILD          ILM          LL8          LLD          LLS         RHOB           SP
# ...
    5104.5000       9.7980      34.6850      94.4590      88.1580    -999.2500    -999.2500    -999.2500       9.8050       8.8750       2.5950    -999.2500
    5105.0000       9.6450      34.7470      94.6960      89.2290    -999.2500    -999.2500    -999.2500       9.6250       8.8750       2.5780    -999.2500
    5105.5000       9.5640      35.0920      94.9320      88.1410    -999.2500    -999.2500    -999.2500       9.6250       9.0390       2.5690    -999.2500
    5106.0000       9.8370      35.6370      94.5920      86.6640    -999.2500    -999.2500    -999.2500       9.8050       9.2110       2.5400    -999.2500
    5106.5000       9.5040      36.3940      94.0870      84.6040    -999.2500    -999.2500    -999.2500      10.1800       9.3830       2.5340    -999.2500
    5107.0000       9.3370      36.3660      93.5810      83.7960    -999.2500    -999.2500    -999.2500      10.3670       9.7340       2.5540    -999.2500
    5107.5000       9.2890      36.2590      93.5610      83.4680    -999.2500    -999.2500    -999.2500      10.3670       9.7340       2.5340    -999.2500
    5108.0000       9.1530      36.3080      94.0380      83.1630    -999.2500    -999.2500    -999.2500      10.5630       9.7340       2.5210    -999.2500
    5108.5000       8.9410      36.5800      94.0850      82.8770    -999.2500    -999.2500    -999.2500      10.7580       9.7340       2.5320    -999.2500
    5109.0000       8.9140      37.0100      93.4920      82.9290    -999.2500    -999.2500    -999.2500      10.5630       9.7340       2.5450    -999.2500
    5109.5000       8.8860      36.6460      92.3000      83.7180    -999.2500    -999.2500    -999.2500      10.5630       9.7340       2.5410    -999.2500
    5110.0000       8.8850      36.2290      91.1080      84.5080    -999.2500    -999.2500    -999.2500      10.5630       9.7340       2.5350    -999.2500
    5110.5000       8.9290      36.7610      90.0320      85.2050    -999.2500    -999.2500    -999.2500      10.5630       9.7340       2.5410    -999.2500
    5111.0000       8.9730      37.0410      91.0030      85.8870    -999.2500    -999.2500    -999.2500      10.5630       9.9140       2.5430    -999.2500
    5111.5000       9.0150      36.1820      92.1860      85.1210    -999.2500    -999.2500    -999.2500      10.5630       9.7340       2.5420    -999.2500
    5112.0000       9.0550      35.7120      93.3690      83.2180    -999.2500    -999.2500    -999.2500      10.5630       9.9140       2.5410    -999.2500
    5112.5000       9.0730      35.7070      93.5310      81.8540    -999.2500    -999.2500    -999.2500      10.5630       9.9140       2.5410    -999.2500
    5113.0000       9.0580      35.6940      93.3540      80.4890    -999.2500    -999.2500    -999.2500      10.7580       9.9140       2.5410    -999.2500
    5113.5000       9.0430      35.6560      92.8580      79.6980    -999.2500    -999.2500    -999.2500      10.5630       9.7340       2.5450    -999.2500
    5114.0000       9.0610      35.6330      92.2580      82.8980    -999.2500    -999.2500    -999.2500      10.5630       9.5550       2.5520    -999.2500
    5114.5000       9.0790      35.3330      92.0920      85.0550    -999.2500    -999.2500    -999.2500      10.5630       9.5550       2.5630    -999.2500
    5115.0000       9.0970      34.7750      92.1000      86.6270    -999.2500    -999.2500    -999.2500      10.3670       9.5550       2.5730    -999.2500
    5115.5000       9.1430      34.3710      92.1080      87.3950    -999.2500    -999.2500    -999.2500       9.9920       9.3830       2.5480    -999.2500
    5116.0000       9.2210      34.1340      92.2260      87.4760    -999.2500    -999.2500    -999.2500      10.1800       9.3830       2.5620    -999.2500
    5116.5000       9.2990      33.9010      92.3250      80.6870    -999.2500    -999.2500    -999.2500       9.8050       9.3830       2.5670    -999.2500
    5117.0000       9.3060      33.6690      92.3100      82.3080    -999.2500    -999.2500    -999.2500       9.9920       9.3830       2.5250    -999.2500
    5117.5000       9.3110      33.4340      92.3720      84.3370    -999.2500    -999.2500    -999.2500       9.9920       9.5550       2.5320    -999.2500
    5118.0000       9.3410      33.1980      92.6780      84.8460    -999.2500    -999.2500    -999.2500       9.9920       9.3830       2.5440    -999.2500
