#------------------------------------------------------------------------------
#	  Created by	:	
#	  Created on	:	19-1/-19  
#------------------------------------------------------------------------------
~VERSION INFORMATION
VERS. 2.0 : CWLS Log ASCII Standard - version 2.0
WRAP.  NO : One line per depth step
~WELL INFORMATION
#MNEMONIC   .UNIT                                         VALUE :DESCRIPTION
#------------------------------------------------------------------------------
STRT        .FT                                        106.5000 :START DEPTH
STOP        .FT                                       5877.5000 :STOP DEPTH
STEP        .FT                                          0.5000 :STEP
NULL        .                                         -999.2500 :NULL
COMP        .                      HUSKY OIL NPR OPERATIONS INC :COMPANY
WELL        .                                        KOLUKTAK 1 :WELL
FLD         .                                                   :FIELD
LOC         .                                          UNKNOWN  :LOCATION
CNTY        .                                          UNKNOWN  :LOCATION
STAT        .                                          UNKNOWN  :STATE
CTRY        .                                          UNKNOWN  :COUNTRY
SRVC        .                                          UNKNOWN  :SERVICE COMPANY
DATE        .                                          19-1/-19 :LOG DATE
API         .                                    50119200010000 :API NUMBER
XCOORD      .                                     -84035.982000 :SURFACE X
YCOORD      .                                    5780930.296000 :SURFACE Y
LAT         .                                         69.752392 :LATITUDE
LON         .                                       -154.611139 :LONGITUDE
ELEV        .FT                                     -999.250000 :SURFACE ELEV
ELEV_TYPE   .                                      -999.250000KB :ELEV TYPE
~PARAMETER INFORMATION                                                          
#MNEM.UNIT        VALUE   DESCRIPTION                                           
#---------      --------  -----------                                           
ELEV    .F          313.0: KB ELEVATION                                         
TDD     .F      5877.5000: TOTAL DEPTH DRILLED
~OTHER INFORMATION                                                              
FLS0    .          CIRC                                                         
LGD0    .          10/15/76                                                     
MT0     .          GEL                                                          
FLS0    .          FLOWLONE                                                     
LGD0    .          12/24/76                                                     
MT0     .          GEL/DRISPAC                                                  
FLS0    .          FLOWLINE                                                     
LGD0    .          03/08/77                                                     
MT0     .          GEL-XP-20                                                    
FLS0    .          FLOWLINE                                                     
LGD0    .          03/15/77                                                     
MT0     .          GEL/XP-20   
~CURVE INFORMATION  
#MNEMONIC.UNIT               API CODE: CURVE DESCRIPTION
#------------------------------------------------------------------------------
DEPTH    .FT                  UNKNOWN: Measured Depth
CALI     .                    UNKNOWN: 
CNS      .                    UNKNOWN: 
DT       .                    UNKNOWN: 
GR       .GAPI                UNKNOWN: 
ILD      .OHMM                UNKNOWN: 
ILM      .OHMM                UNKNOWN: 
LL8      .                    UNKNOWN: 
LLD      .                    UNKNOWN: 
LLS      .                    UNKNOWN: 
RHOB     .                    UNKNOWN: 
SP       .MV                  UNKNOWN: 
~A      DEPTH         CALI          CNS           DT           GR          ILD          ILM          LL8          LLD          LLS         RHOB           SP
# ...
     463.5000      13.5760      47.4650     126.1300     100.5380       6.6750       7.8940       8.8730    -999.2500    -999.2500       2.2450      27.7650
     464.0000      13.6180      46.5380     123.4650      99.1390       6.8620       9.0660      11.3780    -999.2500    -999.2500       2.3970      29.2640
     464.5000      13.6600      44.1830     120.1760      97.9610       6.9900       9.7600      17.0630    -999.2500    -999.2500       2.3890      30.7640
     465.0000      13.4560      41.8160     112.1210      94.5420       7.1850       9.4060      16.9060    -999.2500    -999.2500       2.3610      32.7640
     465.5000      13.2030      39.4490     103.8140      89.9100       7.3190       9.1500      12.1350    -999.2500    -999.2500       2.4230      34.0140
     466.0000      12.8640      37.0820      96.9160      83.1390       7.7350       9.4060       9.6400    -999.2500    -999.2500       2.4890      19.7660
     466.5000      12.8220      34.7150      94.4270      79.7570       8.2500       9.9420       9.0380    -999.2500    -999.2500       2.5690       3.5190
     467.0000      12.9300      33.3700      98.6850      78.1800       8.7190      10.7030       9.1220    -999.2500    -999.2500       2.5900       4.0190
     467.5000      13.0630      35.8160     103.3300      80.9860       8.8000      11.4170      10.5700    -999.2500    -999.2500       2.5570       5.0180
     468.0000      13.0930      37.5130     109.1610      81.8130       8.6390      11.6290      13.1840    -999.2500    -999.2500       2.5340       5.7680
     468.5000      12.9980      38.8550     107.0330      82.2350       8.4040      11.3120      14.5900    -999.2500    -999.2500       2.4900       6.5180
     469.0000      12.9640      37.4740     104.1760      81.1530       8.1000      10.6050      12.4760    -999.2500    -999.2500       2.4660       7.5180
     469.5000      12.9300      36.4470     102.2070      79.5000       7.9520       9.6700      10.1870    -999.2500    -999.2500       2.4630       8.5180
     470.0000      12.9690      35.8410     100.7230      76.8620       7.8790       9.0660       8.9550    -999.2500    -999.2500       2.4870       9.0180
     470.5000      13.0080      38.4300     103.0720      75.3550       7.7350       8.4990       8.4740    -999.2500    -999.2500       2.5310      10.7670
     471.0000      13.0470      40.2780     105.4210      79.9090       7.5240       8.1910       8.0180    -999.2500    -999.2500       2.5060      11.5170
     471.5000      13.1100      42.1260     108.4920      83.5650       7.4550       8.4210       7.5870    -999.2500    -999.2500       2.4970      12.2670
     472.0000      13.1830      44.4300     112.3310      86.7190       7.4550       9.1500       8.2430    -999.2500    -999.2500       2.5190      12.7670
     472.5000      13.2560      44.8660     117.1010      89.0220       7.5240      10.0340      10.2820    -999.2500    -999.2500       2.5160      12.7670
     473.0000      13.3450      44.5080     114.7190      91.3260       7.7350      10.9020      12.7070    -999.2500    -999.2500       2.4830      11.7670
     473.5000      13.4800      43.6480     111.5730      92.3820       8.0260      11.6290      14.4560    -999.2500    -999.2500       2.4400      11.5170
     474.0000      12.9430      41.6620     108.3030      92.3470       8.4820      12.0660      14.7250    -999.2500    -999.2500       2.4140      13.2670
     474.5000      12.8850      39.3210     103.4380      87.8590       8.7190      11.8460      13.5540    -999.2500    -999.2500       2.4640      15.5170
     475.0000      12.8270      36.9790     101.1030      82.5600       8.7190      11.0030      12.1350    -999.2500    -999.2500       2.5180      17.7660
     475.5000      12.7940      34.3560      99.7660      74.7120       8.4040       9.8500      10.8660    -999.2500    -999.2500       2.5330      19.5160
     476.0000      12.7810      35.8530      98.8200      73.0860       8.0260       8.8180       9.6400    -999.2500    -999.2500       2.5360      21.0160
     476.5000      12.7680      37.3120     101.7020      77.0170       7.6640       8.1160       8.2430    -999.2500    -999.2500       2.4770      22.2660
     477.0000      12.8070      38.7720     105.0440      82.4320       7.5240       8.0410       7.3130    -999.2500    -999.2500       2.5220      23.5150
     477.5000      12.8740      40.2310     109.6330      88.0110       7.5940       8.5780       7.3130    -999.2500    -999.2500       2.4940      27.5150
     478.0000      12.9420      41.6910     114.6830      90.7460       7.6640       9.4930       8.9550    -999.2500    -999.2500       2.4550      31.0140
     478.5000      13.0120      43.1500     119.7320      92.8990       7.7350      10.3150      10.9660    -999.2500    -999.2500       2.4670      34.0140
     479.0000      13.0950      44.6090     116.6840      94.0540       7.8790      10.9020      12.7070    -999.2500    -999.2500       2.4530      37.5130
     479.5000      13.1140      41.7310     109.6060      91.5730       7.8790      11.0030      14.4560    -999.2500    -999.2500       2.4180      42.7620
     480.0000      13.0410      38.7700     103.9520      86.5850       8.1000      10.5070      13.1840    -999.2500    -999.2500       2.4170      52.7610
     480.5000      12.9020      36.3310      99.8370      81.5970       8.1000       9.6700       9.9100    -999.2500    -999.2500       2.4800      63.2590
     481.0000      12.7630      36.0820     101.7250      77.7320       8.1000       8.9820       8.4740    -999.2500    -999.2500       2.5090      67.7580
     481.5000      12.6770      36.6600     104.7030      77.8480       8.0260       8.4990       7.8000    -999.2500    -999.2500       2.5200      86.5050
     482.0000      12.6900      37.8190     112.9850      80.8080       7.8070       8.3430       7.8720    -999.2500    -999.2500       2.4700      93.0040
     482.5000      12.7040      40.0010     121.9620      83.8950       7.4550       8.1910       8.3960    -999.2500    -999.2500       2.4380      76.7570
     483.0000      12.7880      42.5510     123.8360      88.2180       6.9900       7.8940       9.2060    -999.2500    -999.2500       2.4170      69.5080
     483.5000      12.8830      44.8540     125.2130      92.2130       6.6750       7.5380       9.2060    -999.2500    -999.2500       2.3820      68.7580
     484.0000      12.9770      42.9880     120.9430      95.1500       6.3160       7.1330       8.6310    -999.2500    -999.2500       2.3140      79.2560
     484.5000      12.9390      41.4210     116.2690      96.2420       6.1440       6.8110       7.8000    -999.2500    -999.2500       2.4390      83.0060
     485.0000      12.9000      40.4220     117.0280      97.3410       6.0870       6.5640       7.3130    -999.2500    -999.2500       2.4720      80.5060
     485.5000      12.8620      40.1540     118.2630      98.4510       6.0310       6.5640       7.1790    -999.2500    -999.2500       2.5020      73.0070
     486.0000      12.8280      42.2130     119.8770      99.0070       5.9760       6.5640       7.3130    -999.2500    -999.2500       2.4980      66.7580
     486.5000      12.7950      44.2710     121.5630      98.5850       6.0310       6.6870       7.5870    -999.2500    -999.2500       2.4900      79.2560
     487.0000      12.7610      46.3300     123.0660      99.3160       6.1440       7.1330       7.3800    -999.2500    -999.2500       2.4370     122.7490
     487.5000      12.7280      48.3890     124.2170     101.7800       6.4330       7.8220       7.5170    -999.2500    -999.2500       2.3890     132.9970
     488.0000      12.7400      50.4470     127.9170     104.8920       6.9900       8.9000       8.4740    -999.2500    -999.2500       2.3310     128.9980
     488.5000      12.7570      52.5060     129.7420     107.8050       7.6640      10.7030      11.6970    -999.2500    -999.2500       2.2890     150.2450
