#------------------------------------------------------------------------------
#	  Created by	:	
#	  Created on	:	19-1/-19  
#------------------------------------------------------------------------------
~VERSION INFORMATION
VERS. 2.0 : CWLS Log ASCII Standard - version 2.0
WRAP.  NO : One line per depth step
~WELL INFORMATION
#MNEMONIC   .UNIT                                         VALUE :DESCRIPTION
#------------------------------------------------------------------------------
STRT        .FT                                        106.5000 :START DEPTH
STOP        .FT                                       5877.5000 :STOP DEPTH
STEP        .FT                                          0.5000 :STEP
NULL        .                                         -999.2500 :NULL
COMP        .                      HUSKY OIL NPR OPERATIONS INC :COMPANY
WELL        .                                        KOLUKTAK 1 :WELL
FLD         .                                                   :FIELD
LOC         .                                          UNKNOWN  :LOCATION
CNTY        .                                          UNKNOWN  :LOCATION
STAT        .                                          UNKNOWN  :STATE
CTRY        .                                          UNKNOWN  :COUNTRY
SRVC        .                                          UNKNOWN  :SERVICE COMPANY
DATE        .                                          19-1/-19 :LOG DATE
API         .                                    50119200010000 :API NUMBER
XCOORD      .                                     -84035.982000 :SURFACE X
YCOORD      .                                    5780930.296000 :SURFACE Y
LAT         .                                         69.752392 :LATITUDE
LON         .                                       -154.611139 :LONGITUDE
ELEV        .FT                                     -999.250000 :SURFACE ELEV
ELEV_TYPE   .                                      -999.250000KB :ELEV TYPE
~PARAMETER INFORMATION                                                          
#MNEM.UNIT        VALUE   DESCRIPTION                                           
#---------      --------  -----------                                           
ELEV    .F          313.0: KB ELEVATION                                         
TDD     .F      5877.5000: TOTAL DEPTH DRILLED
~OTHER INFORMATION                                                              
FLS0    .          CIRC                                                         
LGD0    .          10/15/76                                                     
MT0     .          GEL                                                          
FLS0    .          FLOWLONE                                                     
LGD0    .          12/24/76                                                     
MT0     .          GEL/DRISPAC                                                  
FLS0    .          FLOWLINE                                                     
LGD0    .          03/08/77                                                     
MT0     .          GEL-XP-20                                                    
FLS0    .          FLOWLINE                                                     
LGD0    .          03/15/77                                                     
MT0     .          GEL/XP-20   
~CURVE INFORMATION  
#MNEMONIC.UNIT               API CODE: CURVE DESCRIPTION
#------------------------------------------------------------------------------
DEPTH    .FT                  UNKNOWN: Measured Depth
CALI     .                    UNKNOWN: 
CNS      .                    UNKNOWN: 
DT       .                    UNKNOWN: 
GR       .GAPI                UNKNOWN: 
ILD      .OHMM                UNKNOWN: 
ILM      .OHMM                UNKNOWN: 
LL8      .                    UNKNOWN: 
LLD      .                    UNKNOWN: 
LLS      .                    UNKNOWN: 
RHOB     .                    UNKNOWN: 
SP       .MV                  UNKNOWN: 
~A      DEPTH         CALI          CNS           DT           GR          ILD          ILM          LL8          LLD          LLS         RHOB           SP
# ...
    2784.0000      11.3880      28.7570      72.7730      64.1740    -999.2500    -999.2500    -999.2500      35.6870      21.4840       2.6190    -999.2500
    2784.5000      11.4560      32.0250      70.9600      64.4130    -999.2500    -999.2500    -999.2500      25.6090      25.8280       2.5670    -999.2500
    2785.0000      11.4690      30.5550      70.4510      61.4100    -999.2500    -999.2500    -999.2500      23.7810      27.8130       2.5970    -999.2500
    2785.5000      11.4710      28.9630      71.4150      59.5300    -999.2500    -999.2500    -999.2500      27.5780      36.0000       2.6170    -999.2500
    2786.0000      11.4710      27.4880      70.9350      58.5680    -999.2500    -999.2500    -999.2500      39.1560      38.0310       2.6330    -999.2500
    2786.5000      11.4270      26.2590      70.4110      57.6060    -999.2500    -999.2500    -999.2500      47.0940      37.3440       2.6080    -999.2500
    2787.0000      11.3520      26.5780      71.6530      56.5460    -999.2500    -999.2500    -999.2500      46.2190      36.0000       2.5920    -999.2500
    2787.5000      11.6190      26.7130      73.0490      54.5800    -999.2500    -999.2500    -999.2500      46.2190      34.0620       2.5810    -999.2500
    2788.0000      11.6400      26.7190      74.4460      52.6400    -999.2500    -999.2500    -999.2500      42.9370      34.0620       2.5740    -999.2500
    2788.5000      11.6610      27.0980      75.9510      51.0900    -999.2500    -999.2500    -999.2500      41.3750      32.2190       2.5530    -999.2500
    2789.0000      11.1540      27.3330      77.1290      49.1850    -999.2500    -999.2500    -999.2500      37.0310      31.6410       2.5320    -999.2500
    2789.5000      10.7290      26.2520      78.1820      47.1720    -999.2500    -999.2500    -999.2500      36.3750      27.2970       2.5160    -999.2500
    2790.0000      10.3830      25.5000      79.1670      43.9780    -999.2500    -999.2500    -999.2500      38.4370      25.3590       2.5010    -999.2500
    2790.5000      10.5120      24.7470      79.4560      42.6730    -999.2500    -999.2500    -999.2500      33.1560      23.1250       2.4830    -999.2500
    2791.0000      10.6850      24.2980      74.9900      46.5790    -999.2500    -999.2500    -999.2500      32.5620      24.4530       2.5180    -999.2500
    2791.5000      10.8270      25.1640      73.0560      48.3270    -999.2500    -999.2500    -999.2500      28.6090      24.0000       2.5250    -999.2500
    2792.0000      10.7580      26.0300      73.1350      48.9340    -999.2500    -999.2500    -999.2500      28.6090      29.9380       2.4870    -999.2500
    2792.5000      10.6990      25.4390      73.2630      42.8190    -999.2500    -999.2500    -999.2500      30.2340      29.9380       2.4770    -999.2500
    2793.0000      10.6840      24.3770      73.6280      40.3650    -999.2500    -999.2500    -999.2500      35.6870      29.3910       2.4780    -999.2500
    2793.5000      10.7030      23.6910      73.9930      40.7700    -999.2500    -999.2500    -999.2500      35.6870      29.9380       2.4830    -999.2500
    2794.0000      10.7480      23.4710      73.2880      41.1180    -999.2500    -999.2500    -999.2500      33.7810      30.5000       2.4890    -999.2500
    2794.5000      10.6820      23.3630      73.6660      40.8400    -999.2500    -999.2500    -999.2500      33.1560      29.9380       2.4670    -999.2500
    2795.0000      10.6190      23.7580      73.7790      40.7210    -999.2500    -999.2500    -999.2500      35.6870      30.5000       2.4720    -999.2500
    2795.5000      10.6850      24.1530      73.3110      41.2270    -999.2500    -999.2500    -999.2500      36.3750      31.0630       2.4820    -999.2500
    2796.0000      10.5120      23.9970      72.8430      41.7920    -999.2500    -999.2500    -999.2500      37.7190      31.0630       2.4680    -999.2500
    2796.5000      10.7160      23.8300      72.3750      43.0500    -999.2500    -999.2500    -999.2500      37.7190      31.6410       2.5060    -999.2500
    2797.0000      11.0890      23.7670      71.9180      44.3090    -999.2500    -999.2500    -999.2500      39.1560      32.2190       2.5050    -999.2500
    2797.5000      11.5060      23.7700      71.4780      45.5670    -999.2500    -999.2500    -999.2500      40.6250      32.8120       2.5010    -999.2500
    2798.0000      11.8720      23.7740      71.0390      46.2360    -999.2500    -999.2500    -999.2500      42.1560      34.0620       2.5060    -999.2500
    2798.5000      11.8000      23.7860      70.7390      44.3020    -999.2500    -999.2500    -999.2500      42.9370      34.6870       2.5180    -999.2500
    2799.0000      11.7080      23.7970      70.6920      44.2850    -999.2500    -999.2500    -999.2500      44.5620      36.0000       2.5310    -999.2500
    2799.5000      11.6650      23.8180      70.6450      45.4050    -999.2500    -999.2500    -999.2500      47.9690      37.3440       2.5450    -999.2500
    2800.0000      11.6580      23.8530      70.5970      48.6090    -999.2500    -999.2500    -999.2500      48.8750      38.7500       2.5580    -999.2500
    2800.5000      11.6510      23.7560      70.5240      51.7560    -999.2500    -999.2500    -999.2500      49.7810      39.4690       2.5290    -999.2500
    2801.0000      11.6700      23.4390      70.3820      54.7970    -999.2500    -999.2500    -999.2500      49.7810      40.1870       2.5700    -999.2500
    2801.5000      11.6990      23.2610      70.2410      57.8330    -999.2500    -999.2500    -999.2500      49.7810      40.1870       2.5870    -999.2500
    2802.0000      11.7280      23.2280      70.0990      60.8520    -999.2500    -999.2500    -999.2500      49.7810      40.1870       2.6010    -999.2500
    2802.5000      11.7570      23.3390      69.9570      61.3890    -999.2500    -999.2500    -999.2500      48.8750      39.4690       2.5910    -999.2500
    2803.0000      11.7350      23.5560      69.5390      60.9210    -999.2500    -999.2500    -999.2500      48.8750      39.4690       2.5770    -999.2500
    2803.5000      11.7100      23.6160      68.9820      59.5510    -999.2500    -999.2500    -999.2500      49.7810      41.7190       2.6080    -999.2500
    2804.0000      11.6730      23.5980      68.4250      58.1820    -999.2500    -999.2500    -999.2500      52.5940      45.7190       2.6190    -999.2500
    2804.5000      11.6340      23.4970      68.0040      56.7680    -999.2500    -999.2500    -999.2500      53.5940      47.4370       2.6080    -999.2500
    2805.0000      11.5380      23.2790      68.0300      54.8430    -999.2500    -999.2500    -999.2500      56.6250      48.3440       2.5990    -999.2500
    2805.5000      11.5150      23.0340      68.3940      53.8220    -999.2500    -999.2500    -999.2500      57.6870      46.5940       2.5900    -999.2500
    2806.0000      11.6500      22.7250      68.7580      56.4600    -999.2500    -999.2500    -999.2500      59.8750      44.9060       2.5810    -999.2500
    2806.5000      11.6410      22.6250      68.6240      57.9160    -999.2500    -999.2500    -999.2500      57.6870      44.0620       2.5770    -999.2500
    2807.0000      11.6310      22.8290      68.0430      60.4750    -999.2500    -999.2500    -999.2500      54.5940      46.5940       2.6040    -999.2500
    2807.5000      11.6340      22.9410      67.4620      62.1080    -999.2500    -999.2500    -999.2500      55.5940      47.4370       2.6050    -999.2500
    2808.0000      11.6390      22.1070      66.8920      59.6820    -999.2500    -999.2500    -999.2500      58.7810      49.2190       2.5940    -999.2500
    2808.5000      11.6760      21.5310      66.3820      56.5260    -999.2500    -999.2500    -999.2500      59.8750      51.0620       2.5860    -999.2500
    2809.0000      11.7210      20.9550      65.8710      52.2680    -999.2500    -999.2500    -999.2500      62.1250      53.9690       2.5910    -999.2500
