#------------------------------------------------------------------------------
#	  Created by	:	
#	  Created on	:	19-1/-19  
#------------------------------------------------------------------------------
~VERSION INFORMATION
VERS. 2.0 : CWLS Log ASCII Standard - version 2.0
WRAP.  NO : One line per depth step
~WELL INFORMATION
#MNEMONIC   .UNIT                                         VALUE :DESCRIPTION
#------------------------------------------------------------------------------
STRT        .FT                                        106.5000 :START DEPTH
STOP        .FT                                       5877.5000 :STOP DEPTH
STEP        .FT                                          0.5000 :STEP
NULL        .                                         -999.2500 :NULL
COMP        .                      HUSKY OIL NPR OPERATIONS INC :COMPANY
WELL        .                                        KOLUKTAK 1 :WELL
FLD         .                                                   :FIELD
LOC         .                                          UNKNOWN  :LOCATION
CNTY        .                                          UNKNOWN  :LOCATION
STAT        .                                          UNKNOWN  :STATE
CTRY        .                                          UNKNOWN  :COUNTRY
SRVC        .                                          UNKNOWN  :SERVICE COMPANY
DATE        .                                          19-1/-19 :LOG DATE
API         .                                    50119200010000 :API NUMBER
XCOORD      .                                     -84035.982000 :SURFACE X
YCOORD      .                                    5780930.296000 :SURFACE Y
LAT         .                                         69.752392 :LATITUDE
LON         .                                       -154.611139 :LONGITUDE
ELEV        .FT                                     -999.250000 :SURFACE ELEV
ELEV_TYPE   .                                      -999.250000KB :ELEV TYPE
~PARAMETER INFORMATION                                                          
#MNEM.UNIT        VALUE   DESCRIPTION                                           
#---------      --------  -----------                                           
ELEV    .F          313.0: KB ELEVATION                                         
TDD     .F      5877.5000: TOTAL DEPTH DRILLED
~OTHER INFORMATION                                                              
FLS0    .          CIRC                                                         
LGD0    .          10/15/76                                                     
MT0     .          GEL                                                          
FLS0    .          FLOWLONE                                                     
LGD0    .          12/24/76                                                     
MT0     .          GEL/DRISPAC                                                  
FLS0    .          FLOWLINE                                                     
LGD0    .          03/08/77                                                     
MT0     .          GEL-XP-20                                                    
FLS0    .          FLOWLINE                                                     
LGD0    .          03/15/77                                                     
MT0     .          GEL/XP-20   
~CURVE INFORMATION  
#MNEMONIC.UNIT               API CODE: CURVE DESCRIPTION
#------------------------------------------------------------------------------
DEPTH    .FT                  UNKNOWN: Measured Depth
CALI     .                    UNKNOWN: 
CNS      .                    UNKNOWN: 
DT       .                    UNKNOWN: 
GR       .GAPI                UNKNOWN: 
ILD      .OHMM                UNKNOWN: 
ILM      .OHMM                UNKNOWN: 
LL8      .                    UNKNOWN: 
LLD      .                    UNKNOWN: 
LLS      .                    UNKNOWN: 
RHOB     .                    UNKNOWN: 
SP       .MV                  UNKNOWN: 
~A      DEPTH         CALI          CNS           DT           GR          ILD          ILM          LL8          LLD          LLS         RHOB           SP
# ...
    4110.0000      13.1800      33.0700      86.4800      73.2320    -999.2500    -999.2500    -999.2500      16.1410      14.0700       2.3700    -999.2500
    4110.5000      12.5120      33.3070      85.5970      72.8820    -999.2500    -999.2500    -999.2500      16.1410      13.8130       2.3960    -999.2500
    4111.0000      13.0090      33.7660      85.4240      72.5320    -999.2500    -999.2500    -999.2500      16.1410      13.3130       2.4050    -999.2500
    4111.5000      13.1330      34.6480      87.9930      72.1830    -999.2500    -999.2500    -999.2500      14.7190      12.5940       2.3810    -999.2500
    4112.0000      12.8740      35.8240      90.0120      73.9540    -999.2500    -999.2500    -999.2500      13.9300      12.1410       2.3540    -999.2500
    4112.5000      12.9910      36.7210      91.1640      75.8490    -999.2500    -999.2500    -999.2500      13.1800      11.9220       2.3310    -999.2500
    4113.0000      13.4600      36.4720      90.5270      76.2480    -999.2500    -999.2500    -999.2500      13.1800      12.3670       2.3120    -999.2500
    4113.5000      13.5340      35.9510      89.6170      74.6550    -999.2500    -999.2500    -999.2500      13.9300      12.5940       2.2750    -999.2500
    4114.0000      13.2850      35.4300      88.7310      71.3580    -999.2500    -999.2500    -999.2500      14.4530      12.5940       2.2340    -999.2500
    4114.5000      13.0240      34.9090      89.2180      71.8480    -999.2500    -999.2500    -999.2500      13.6720      11.9220       2.2720    -999.2500
    4115.0000      12.7470      34.3880      89.7050      72.6220    -999.2500    -999.2500    -999.2500      13.4220      11.2730       2.3130    -999.2500
    4115.5000      12.0100      34.2650      90.1780      73.8580    -999.2500    -999.2500    -999.2500      12.9380      10.8670       2.3650    -999.2500
    4116.0000      11.7560      34.8860      90.6480      75.4470    -999.2500    -999.2500    -999.2500      12.2420      11.4840       2.3800    -999.2500
    4116.5000      12.6130      35.0650      90.7240      74.1100    -999.2500    -999.2500    -999.2500      11.7970      11.4840       2.3200    -999.2500
    4117.0000      13.0490      34.7080      90.4710      72.7130    -999.2500    -999.2500    -999.2500      13.4220      11.0700       2.2820    -999.2500
    4117.5000      13.6350      34.8550      90.2180      72.4210    -999.2500    -999.2500    -999.2500      13.4220      11.0700       2.2550    -999.2500
    4118.0000      13.9680      35.2160      90.2420      72.4930    -999.2500    -999.2500    -999.2500      12.9380      10.8670       2.2480    -999.2500
    4118.5000      14.0180      35.1880      91.2460      73.8850    -999.2500    -999.2500    -999.2500      12.4690      10.8670       2.2730    -999.2500
    4119.0000      13.5570      35.7380      92.2500      75.2770    -999.2500    -999.2500    -999.2500      12.4690      10.4770       2.2900    -999.2500
    4119.5000      13.7410      36.8220      93.0120      76.3400    -999.2500    -999.2500    -999.2500      12.2420      10.6720       2.2530    -999.2500
    4120.0000      13.3240      38.2970      93.6960      75.6860    -999.2500    -999.2500    -999.2500      11.7970      10.0940       2.2800    -999.2500
    4120.5000      12.3500      37.9630      94.5340      74.8000    -999.2500    -999.2500    -999.2500      11.5780       9.9140       2.3400    -999.2500
    4121.0000      12.2690      37.6260      95.7900      74.0980    -999.2500    -999.2500    -999.2500      11.5780       9.5550       2.3150    -999.2500
    4121.5000      12.8720      37.4730      94.7580      74.8690    -999.2500    -999.2500    -999.2500      11.5780       9.5550       2.2790    -999.2500
    4122.0000      13.2400      37.3480      93.4630      75.6400    -999.2500    -999.2500    -999.2500      11.5780      10.4770       2.3970    -999.2500
    4122.5000      13.4990      37.2720      92.6740      76.6350    -999.2500    -999.2500    -999.2500      11.7970      10.4770       2.4210    -999.2500
    4123.0000      13.8510      37.5290      93.7000      77.7710    -999.2500    -999.2500    -999.2500      11.5780       9.9140       2.4290    -999.2500
    4123.5000      14.0750      37.6550      94.8410      78.4050    -999.2500    -999.2500    -999.2500      11.7970       9.9140       2.3660    -999.2500
    4124.0000      13.6230      37.3210      95.6530      74.1800    -999.2500    -999.2500    -999.2500      11.5780       9.9140       2.2850    -999.2500
    4124.5000      13.3420      37.2030      96.0760      72.9550    -999.2500    -999.2500    -999.2500      11.7970       9.7340       2.2210    -999.2500
    4125.0000      12.2150      37.5360      93.7850      72.2570    -999.2500    -999.2500    -999.2500      12.4690      10.8670       2.1710    -999.2500
    4125.5000      11.8650      38.0920      93.7870      72.5400    -999.2500    -999.2500    -999.2500      12.9380      11.0700       2.2370    -999.2500
    4126.0000      11.7950      38.6630      93.9620      73.5830    -999.2500    -999.2500    -999.2500      13.4220      11.7030       2.2950    -999.2500
    4126.5000      12.3920      38.2750      90.4120      74.6270    -999.2500    -999.2500    -999.2500      13.6720      12.1410       2.3170    -999.2500
    4127.0000      13.0230      37.4570      89.9920      74.4760    -999.2500    -999.2500    -999.2500      13.6720      12.3670       2.3430    -999.2500
    4127.5000      12.3360      36.7630      92.9700      72.7260    -999.2500    -999.2500    -999.2500      13.9300      12.8280       2.3110    -999.2500
    4128.0000      12.4920      36.0680      93.8880      71.2590    -999.2500    -999.2500    -999.2500      14.1880      13.0700       2.2600    -999.2500
    4128.5000      13.0410      35.3730      89.6300      70.8740    -999.2500    -999.2500    -999.2500      14.7190      12.3670       2.2350    -999.2500
    4129.0000      13.5490      34.6790      89.3160      73.7960    -999.2500    -999.2500    -999.2500      14.1880      11.4840       2.2140    -999.2500
    4129.5000      13.8920      33.9840      93.5540      75.8740    -999.2500    -999.2500    -999.2500      13.9300      11.0700       2.2230    -999.2500
    4130.0000      14.1270      32.9680      97.7720      75.5210    -999.2500    -999.2500    -999.2500      12.7030       9.9140       2.2440    -999.2500
    4130.5000      14.2330      33.6430      94.7790      74.8970    -999.2500    -999.2500    -999.2500      12.4690       9.7340       2.2650    -999.2500
    4131.0000      14.2890      34.9000      95.5310      75.7310    -999.2500    -999.2500    -999.2500      10.9530       9.3830       2.2680    -999.2500
    4131.5000      12.5340      36.1570      95.8670      76.5660    -999.2500    -999.2500    -999.2500      10.7580       9.2110       2.1790    -999.2500
    4132.0000      12.4240      37.4150      94.9600      76.8790    -999.2500    -999.2500    -999.2500      10.5630       9.2110       2.2280    -999.2500
    4132.5000      12.3670      38.6720      95.7910      76.9930    -999.2500    -999.2500    -999.2500      10.7580       9.5550       2.2810    -999.2500
    4133.0000      12.3460      39.7150      95.0350      71.4050    -999.2500    -999.2500    -999.2500      10.5630       9.9140       2.3150    -999.2500
    4133.5000      12.3460      38.1710      94.2670      69.4530    -999.2500    -999.2500    -999.2500      10.7580      10.4770       2.3530    -999.2500
    4134.0000      12.2110      36.2710      95.4810      63.7840    -999.2500    -999.2500    -999.2500      10.9530      11.2730       2.3920    -999.2500
    4134.5000      11.7580      34.3720      92.7720      56.6350    -999.2500    -999.2500    -999.2500      11.5780      12.1410       2.4400    -999.2500
    4135.0000      11.4840      32.4720      90.1820      50.9650    -999.2500    -999.2500    -999.2500      14.1880      15.4220       2.4650    -999.2500
