#------------------------------------------------------------------------------
#	  Created by	:	
#	  Created on	:	19-1/-19  
#------------------------------------------------------------------------------
~VERSION INFORMATION
VERS. 2.0 : CWLS Log ASCII Standard - version 2.0
WRAP.  NO : One line per depth step
~WELL INFORMATION
#MNEMONIC   .UNIT                                         VALUE :DESCRIPTION
#------------------------------------------------------------------------------
STRT        .FT                                        106.5000 :START DEPTH
STOP        .FT                                       5877.5000 :STOP DEPTH
STEP        .FT                                          0.5000 :STEP
NULL        .                                         -999.2500 :NULL
COMP        .                      HUSKY OIL NPR OPERATIONS INC :COMPANY
WELL        .                                        KOLUKTAK 1 :WELL
FLD         .                                                   :FIELD
LOC         .                                          UNKNOWN  :LOCATION
CNTY        .                                          UNKNOWN  :LOCATION
STAT        .                                          UNKNOWN  :STATE
CTRY        .                                          UNKNOWN  :COUNTRY
SRVC        .                                          UNKNOWN  :SERVICE COMPANY
DATE        .                                          19-1/-19 :LOG DATE
API         .                                    50119200010000 :API NUMBER
XCOORD      .                                     -84035.982000 :SURFACE X
YCOORD      .                                    5780930.296000 :SURFACE Y
LAT         .                                         69.752392 :LATITUDE
LON         .                                       -154.611139 :LONGITUDE
ELEV        .FT                                     -999.250000 :SURFACE ELEV
ELEV_TYPE   .                                      -999.250000KB :ELEV TYPE
~PARAMETER INFORMATION                                                          
#MNEM.UNIT        VALUE   DESCRIPTION                                           
#---------      --------  -----------                                           
ELEV    .F          313.0: KB ELEVATION                                         
TDD     .F      5877.5000: TOTAL DEPTH DRILLED
~OTHER INFORMATION                                                              
FLS0    .          CIRC                                                         
LGD0    .          10/15/76                                                     
MT0     .          GEL                                                          
FLS0    .          FLOWLONE                                                     
LGD0    .          12/24/76                                                     
MT0     .          GEL/DRISPAC                                                  
FLS0    .          FLOWLINE                                                     
LGD0    .          03/08/77                                                     
MT0     .          GEL-XP-20                                                    
FLS0    .          FLOWLINE                                                     
LGD0    .          03/15/77                                                     
MT0     .          GEL/XP-20   
~CURVE INFORMATION  
#MNEMONIC.UNIT               API CODE: CURVE DESCRIPTION
#------------------------------------------------------------------------------
DEPTH    .FT                  UNKNOWN: Measured Depth
CALI     .                    UNKNOWN: 
CNS      .                    UNKNOWN: 
DT       .                    UNKNOWN: 
GR       .GAPI                UNKNOWN: 
ILD      .OHMM                UNKNOWN: 
ILM      .OHMM                UNKNOWN: 
LL8      .                    UNKNOWN: 
LLD      .                    UNKNOWN: 
LLS      .                    UNKNOWN: 
RHOB     .                    UNKNOWN: 
SP       .MV                  UNKNOWN: 
~A      DEPTH         CALI          CNS           DT           GR          ILD          ILM          LL8          LLD          LLS         RHOB           SP
# ...
    1126.5000      13.0310      33.9790      95.3030      87.0670      12.0380      18.1070      20.3260    -999.2500    -999.2500       2.5370      31.5140
    1127.0000      13.0590      35.0070      96.0240      88.9590      11.2860      15.9130      18.5370    -999.2500    -999.2500       2.5540      33.5140
    1127.5000      13.0860      36.0820      97.6220      89.7170      10.7780      14.3780      16.4460    -999.2500    -999.2500       2.5630      36.0130
    1128.0000      13.1130      37.8200     100.0350      90.5590      10.2920      13.4790      14.1920    -999.2500    -999.2500       2.5430      37.0130
    1128.5000      13.1420      38.9250     102.7760      91.4350      10.1980      13.6040      13.1840    -999.2500    -999.2500       2.5360      37.0130
    1129.0000      13.2080      40.0300     106.3330      92.9310      10.1980      14.2460      13.6790    -999.2500    -999.2500       2.5500      37.0130
    1129.5000      13.2740      41.1350     109.3430      95.8200      10.1980      14.7810      16.5980    -999.2500    -999.2500       2.5230      36.2630
    1130.0000      13.3350      42.2400     110.9220      99.5810      10.0120      14.9180      19.7720    -999.2500    -999.2500       2.4880      34.5140
    1130.5000      13.2530      43.4800     108.9800      99.3460       9.9200      14.6450      20.3260    -999.2500    -999.2500       2.4640      32.7640
    1131.0000      13.1710      43.1960     106.7410      95.3370      10.1040      14.5110      18.3670    -999.2500    -999.2500       2.4510      32.7640
    1131.5000      13.0890      42.8430     104.5080      90.9070      10.6790      15.1960      15.7050    -999.2500    -999.2500       2.4310      32.0140
    1132.0000      13.0970      42.5740     102.8870      87.1200      11.4960      17.9400      15.1370    -999.2500    -999.2500       2.4380      31.2640
    1132.5000      13.1670      44.5900     105.4550      86.1790      12.7220      23.4420      19.7720    -999.2500    -999.2500       2.4410      31.5140
    1133.0000      13.2220      48.3400     108.7490      90.8250      14.3410      30.9150      41.6890    -999.2500    -999.2500       2.4170      31.5140
    1133.5000      13.2770      52.0890     113.5020      93.0970      16.1660      34.8540     135.5160    -999.2500    -999.2500       2.3080      32.2640
    1134.0000      13.2140      55.8390     118.0360      89.3910      16.6190      33.5910     130.6150    -999.2500    -999.2500       2.0220      34.0140
    1134.5000      13.0760      59.3500     122.0690      82.0830      17.0850      30.6310      71.1230    -999.2500    -999.2500       1.9800      35.2640
    1135.0000      12.9370      59.9870     127.5810      72.8440      18.2230      28.4520      38.7280    -999.2500    -999.2500       1.8330      35.2640
    1135.5000      12.7990      59.8370     122.7650      66.6300      19.4370      28.4520      26.5480    -999.2500    -999.2500       1.7060      35.0140
    1136.0000      12.7800      57.1020     115.8280      63.8310      20.3540      28.7160      27.5450    -999.2500    -999.2500       1.6810      34.7640
    1136.5000      12.8350      53.6730     111.5690      64.4370      20.3540      28.1910      36.6460    -999.2500    -999.2500       1.9360      33.2640
    1137.0000      12.9190      50.2440     108.8520      69.3370      19.0820      25.9450      40.1810    -999.2500    -999.2500       2.2450      30.7640
    1137.5000      13.0040      46.8150     104.7260      75.0700      17.7260      24.1000      37.6730    -999.2500    -999.2500       2.3190      29.2640
    1138.0000      13.0860      43.4590     102.4780      80.6620      16.9280      23.8790      32.5110    -999.2500    -999.2500       2.3630      29.2640
    1138.5000      13.1680      41.4880      98.5710      83.5160      17.0850      25.2370      29.1100    -999.2500    -999.2500       2.3370      28.7650
    1139.0000      13.2500      39.5170      92.2330      84.0120      17.5640      26.9210      30.7630    -999.2500    -999.2500       2.4330      27.7650
    1139.5000      13.3230      37.5460      93.6020      84.2690      17.8900      28.7160      35.6470    -999.2500    -999.2500       2.5100      27.5150
    1140.0000      13.3110      37.0000      95.8000      82.1330      18.2230      29.2510      39.4480    -999.2500    -999.2500       2.5210      28.2650
    1140.5000      13.1940      35.3790      93.7610      79.5550      18.3920      28.7160      38.3730    -999.2500    -999.2500       2.4980      29.2640
    1141.0000      13.0760      34.2870      90.3310      79.2130      18.9070      30.0720      33.1150    -999.2500    -999.2500       2.4900      28.7650
    1141.5000      13.0370      33.1940      87.6130      80.9900      20.1670      35.1770      28.5780    -999.2500    -999.2500       2.4830      27.2650
    1142.0000      13.0360      32.1190      86.9240      79.6580      21.5100      44.7100      35.3210    -999.2500    -999.2500       2.4950      25.5150
    1142.5000      13.0360      33.3660      90.5940      75.6380      22.7330      53.7680      61.3780    -999.2500    -999.2500       2.5110      23.5150
    1143.0000      13.0360      33.7990      93.1020      71.7990      23.5870      58.9630     112.7190    -999.2500    -999.2500       2.5250      20.7660
    1143.5000      13.0240      33.8100      89.6770      68.0060      23.8050      56.8280     129.4170    -999.2500    -999.2500       2.5300      16.7670
    1144.0000      12.9990      31.1480      85.2090      62.5090      23.8050      52.7850     107.6460    -999.2500    -999.2500       2.5360      15.0170
    1144.5000      12.9730      28.7510      78.0860      56.2530      24.2480      46.8200      61.9460    -999.2500    -999.2500       2.5460      13.5170
    1145.0000      12.9090      26.3550      67.1430      50.6720      23.8050      41.5300      42.8570    -999.2500    -999.2500       2.5560      13.0170
    1145.5000      12.7540      23.4590      72.3380      44.2940      23.1560      36.4990      38.3730    -999.2500    -999.2500       2.5690      12.2670
    1146.0000      12.6000      25.3310      78.7010      40.8020      22.1130      34.2170      39.0860    -999.2500    -999.2500       2.5790      12.5170
    1146.5000      12.5180      26.8120      85.5970      39.5780      21.1180      32.0770      39.8130    -999.2500    -999.2500       2.5150      13.5170
    1147.0000      12.5380      28.0310      93.3120      40.2390      20.1670      32.0770      39.8130    -999.2500    -999.2500       2.4670      15.0170
    1147.5000      12.5590      28.8030      98.9860      40.9000      19.7990      32.0770      39.8130    -999.2500    -999.2500       2.4200      15.7670
    1148.0000      12.5590      29.3300      98.3490      40.3310      19.4370      32.6740      39.0860    -999.2500    -999.2500       2.3810      15.7670
    1148.5000      12.5520      29.7960      97.7120      40.1720      19.4370      32.9770      38.0210    -999.2500    -999.2500       2.3620      15.7670
    1149.0000      12.5450      30.0000      96.6760      40.9220      19.6170      33.5910      36.9850    -999.2500    -999.2500       2.3810      15.5170
    1149.5000      12.5380      30.1800      95.3680      41.6720      19.4370      33.5910      35.6470    -999.2500    -999.2500       2.3750      14.2670
    1150.0000      12.5310      30.2940      94.1080      42.5640      19.6170      33.2830      34.6760    -999.2500    -999.2500       2.3710      13.0170
    1150.5000      12.5230      30.4070      93.4990      44.0970      19.4370      31.2020      34.3580    -999.2500    -999.2500       2.4210      12.7670
    1151.0000      12.5300      30.5440      93.5080      42.5540      19.6170      29.5220      34.0430    -999.2500    -999.2500       2.4130      13.5170
    1151.5000      12.5380      30.5880      94.4180      41.0100      19.7990      30.0720      35.3210    -999.2500    -999.2500       2.3910      14.5170
