#------------------------------------------------------------------------------
#	  Created by	:	
#	  Created on	:	19-1/-19  
#------------------------------------------------------------------------------
~VERSION INFORMATION
VERS. 2.0 : CWLS Log ASCII Standard - version 2.0
WRAP.  NO : One line per depth step
~WELL INFORMATION
#MNEMONIC   .UNIT                                         VALUE :DESCRIPTION
#------------------------------------------------------------------------------
STRT        .FT                                        106.5000 :START DEPTH
STOP        .FT                                       5877.5000 :STOP DEPTH
STEP        .FT                                          0.5000 :STEP
NULL        .                                         -999.2500 :NULL
COMP        .                      HUSKY OIL NPR OPERATIONS INC :COMPANY
WELL        .                                        KOLUKTAK 1 :WELL
FLD         .                                                   :FIELD
LOC         .                                          UNKNOWN  :LOCATION
CNTY        .                                          UNKNOWN  :LOCATION
STAT        .                                          UNKNOWN  :STATE
CTRY        .                                          UNKNOWN  :COUNTRY
SRVC        .                                          UNKNOWN  :SERVICE COMPANY
DATE        .                                          19-1/-19 :LOG DATE
API         .                                    50119200010000 :API NUMBER
XCOORD      .                                     -84035.982000 :SURFACE X
YCOORD      .                                    5780930.296000 :SURFACE Y
LAT         .                                         69.752392 :LATITUDE
LON         .                                       -154.611139 :LONGITUDE
ELEV        .FT                                     -999.250000 :SURFACE ELEV
ELEV_TYPE   .                                      -999.250000KB :ELEV TYPE
~PARAMETER INFORMATION                                                          
#MNEM.UNIT        VALUE   DESCRIPTION                                           
#---------      --------  -----------                                           
ELEV    .F          313.0: KB ELEVATION                                         
TDD     .F      5877.5000: TOTAL DEPTH DRILLED
~OTHER INFORMATION                                                              
FLS0    .          CIRC                                                         
LGD0    .          10/15/76                                                     
MT0     .          GEL                                                          
FLS0    .          FLOWLONE                                                     
LGD0    .          12/24/76                                                     
MT0     .          GEL/DRISPAC                                                  
FLS0    .          FLOWLINE                                                     
LGD0    .          03/08/77                                                     
MT0     .          GEL-XP-20                                                    
FLS0    .          FLOWLINE                                                     
LGD0    .          03/15/77                                                     
MT0     .          GEL/XP-20   
~CURVE INFORMATION  
#MNEMONIC.UNIT               API CODE: CURVE DESCRIPTION
#------------------------------------------------------------------------------
DEPTH    .FT                  UNKNOWN: Measured Depth
CALI     .                    UNKNOWN: 
CNS      .                    UNKNOWN: 
DT       .                    UNKNOWN: 
GR       .GAPI                UNKNOWN: 
ILD      .OHMM                UNKNOWN: 
ILM      .OHMM                UNKNOWN: 
LL8      .                    UNKNOWN: 
LLD      .                    UNKNOWN: 
LLS      .                    UNKNOWN: 
RHOB     .                    UNKNOWN: 
SP       .MV                  UNKNOWN: 
~A      DEPTH         CALI          CNS           DT           GR          ILD          ILM          LL8          LLD          LLS         RHOB           SP
# ...
    4441.5000      12.6550      27.8920      82.2560      62.3890    -999.2500    -999.2500    -999.2500      15.5630      14.5940       2.5200    -999.2500
    4442.0000      12.7630      28.3020      81.9420      63.1860    -999.2500    -999.2500    -999.2500      15.5630      14.5940       2.5500    -999.2500
    4442.5000      12.8720      28.3930      82.0560      64.2710    -999.2500    -999.2500    -999.2500      15.5630      14.8670       2.5600    -999.2500
    4443.0000      12.9810      28.1070      82.1700      65.3550    -999.2500    -999.2500    -999.2500      15.5630      14.8670       2.5070    -999.2500
    4443.5000      13.0790      28.1100      82.2840      66.4220    -999.2500    -999.2500    -999.2500      15.2730      14.8670       2.4780    -999.2500
    4444.0000      13.1390      28.5180      82.4660      67.4880    -999.2500    -999.2500    -999.2500      15.2730      14.8670       2.4700    -999.2500
    4444.5000      13.0360      28.9140      82.6960      67.7210    -999.2500    -999.2500    -999.2500      15.2730      14.5940       2.4930    -999.2500
    4445.0000      13.0810      29.3010      82.9250      67.8390    -999.2500    -999.2500    -999.2500      15.0000      14.0700       2.4980    -999.2500
    4445.5000      13.0710      28.9880      83.0100      67.8330    -999.2500    -999.2500    -999.2500      14.7190      13.8130       2.4830    -999.2500
    4446.0000      12.8140      28.6050      82.7450      67.6900    -999.2500    -999.2500    -999.2500      14.4530      13.3130       2.5120    -999.2500
    4446.5000      12.6300      28.4810      82.4800      66.6010    -999.2500    -999.2500    -999.2500      14.4530      13.0700       2.5280    -999.2500
    4447.0000      12.4760      28.2480      82.2910      64.6460    -999.2500    -999.2500    -999.2500      14.4530      14.3280       2.5310    -999.2500
    4447.5000      12.4710      28.4250      82.3870      66.4080    -999.2500    -999.2500    -999.2500      14.7190      14.3280       2.5460    -999.2500
    4448.0000      12.4660      28.9790      82.4830      68.1700    -999.2500    -999.2500    -999.2500      15.2730      14.8670       2.5450    -999.2500
    4448.5000      12.6330      28.7410      82.6690      69.8790    -999.2500    -999.2500    -999.2500      15.8520      15.1410       2.5360    -999.2500
    4449.0000      12.8150      28.2690      82.9760      70.5220    -999.2500    -999.2500    -999.2500      16.1410      15.4220       2.5260    -999.2500
    4449.5000      12.9380      28.1710      83.2820      71.1660    -999.2500    -999.2500    -999.2500      16.4380      15.7110       2.5090    -999.2500
    4450.0000      13.0110      28.8980      83.5880      71.8090    -999.2500    -999.2500    -999.2500      16.4380      15.7110       2.4900    -999.2500
    4450.5000      12.4710      29.6250      83.2950      72.4520    -999.2500    -999.2500    -999.2500      16.4380      15.4220       2.5150    -999.2500
    4451.0000      12.3690      30.1800      82.6370      73.2520    -999.2500    -999.2500    -999.2500      16.7500      15.4220       2.5370    -999.2500
    4451.5000      12.6290      30.5540      82.0990      74.1130    -999.2500    -999.2500    -999.2500      16.7500      15.4220       2.5190    -999.2500
    4452.0000      12.7910      30.0140      81.8400      74.8600    -999.2500    -999.2500    -999.2500      16.4380      15.1410       2.4920    -999.2500
    4452.5000      12.8950      29.3240      82.1470      75.2560    -999.2500    -999.2500    -999.2500      16.4380      14.8670       2.5050    -999.2500
    4453.0000      12.7690      28.7900      83.1510      70.7380    -999.2500    -999.2500    -999.2500      16.4380      14.5940       2.5060    -999.2500
    4453.5000      12.6450      28.6570      83.6120      68.3850    -999.2500    -999.2500    -999.2500      17.0630      15.1410       2.5100    -999.2500
    4454.0000      12.5720      28.6850      82.4000      66.7490    -999.2500    -999.2500    -999.2500      17.3750      15.7110       2.5280    -999.2500
    4454.5000      12.4990      28.7610      81.2810      65.9270    -999.2500    -999.2500    -999.2500      17.7030      16.0000       2.5660    -999.2500
    4455.0000      12.4800      28.8670      80.8720      65.2380    -999.2500    -999.2500    -999.2500      17.3750      16.9060       2.5690    -999.2500
    4455.5000      12.9650      28.9630      80.4840      64.5610    -999.2500    -999.2500    -999.2500      18.3750      15.7110       2.5200    -999.2500
    4456.0000      13.3720      29.0590      81.8260      66.5310    -999.2500    -999.2500    -999.2500      17.7030      14.0700       2.4900    -999.2500
    4456.5000      13.6400      29.1540      83.7060      68.4940    -999.2500    -999.2500    -999.2500      15.5630      13.3130       2.4730    -999.2500
    4457.0000      13.7320      30.4270      85.9510      70.4570    -999.2500    -999.2500    -999.2500      14.4530      11.7030       2.4530    -999.2500
    4457.5000      13.7530      31.9030      89.2760      72.8830    -999.2500    -999.2500    -999.2500      13.4220      11.2730       2.4360    -999.2500
    4458.0000      14.0310      33.2390      91.7330      75.1470    -999.2500    -999.2500    -999.2500      11.7970      10.2810       2.4710    -999.2500
    4458.5000      14.6410      34.6150      92.7660      76.0170    -999.2500    -999.2500    -999.2500      10.3670       9.5550       2.4700    -999.2500
    4459.0000      14.8140      35.8100      93.6990      76.8870    -999.2500    -999.2500    -999.2500       9.6250       8.5550       2.4480    -999.2500
    4459.5000      14.5440      35.2020      91.9350      77.3660    -999.2500    -999.2500    -999.2500       8.7810       8.3980       2.4220    -999.2500
    4460.0000      14.0740      34.6800      93.0440      77.6030    -999.2500    -999.2500    -999.2500       8.7810       8.0940       2.3960    -999.2500
    4460.5000      13.1200      34.1910      94.3890      77.8400    -999.2500    -999.2500    -999.2500       9.8050       9.0390       2.4250    -999.2500
    4461.0000      12.9920      34.2490      95.6440      78.0770    -999.2500    -999.2500    -999.2500       9.9920       9.0390       2.4460    -999.2500
    4461.5000      13.6040      34.3060      96.4910      78.3130    -999.2500    -999.2500    -999.2500      10.1800       9.0390       2.4630    -999.2500
    4462.0000      14.1650      33.9020      93.1770      77.0690    -999.2500    -999.2500    -999.2500       9.9920       9.0390       2.4920    -999.2500
    4462.5000      14.7410      33.4160      94.4640      74.9980    -999.2500    -999.2500    -999.2500       9.9920       9.0390       2.5430    -999.2500
    4463.0000      14.3930      33.1370      95.8030      73.9200    -999.2500    -999.2500    -999.2500       9.9920       9.0390       2.5440    -999.2500
    4463.5000      13.7040      32.9950      95.6920      74.9610    -999.2500    -999.2500    -999.2500       9.9920       8.7110       2.4540    -999.2500
    4464.0000      14.4230      33.2180      95.5490      76.0030    -999.2500    -999.2500    -999.2500       9.8050       8.5550       2.4500    -999.2500
    4464.5000      14.9980      33.4290      94.8320      77.0440    -999.2500    -999.2500    -999.2500       9.6250       8.5550       2.4450    -999.2500
    4465.0000      14.1920      33.6180      94.1150      76.1980    -999.2500    -999.2500    -999.2500       9.9920       8.8750       2.4600    -999.2500
    4465.5000      13.6180      34.0370      93.3980      75.3190    -999.2500    -999.2500    -999.2500      10.7580       9.3830       2.4710    -999.2500
    4466.0000      13.4020      34.4730      91.8100      76.8130    -999.2500    -999.2500    -999.2500      10.9530       9.5550       2.4780    -999.2500
    4466.5000      13.3290      34.1920      90.0640      78.7260    -999.2500    -999.2500    -999.2500      11.5780      10.2810       2.4980    -999.2500
