#------------------------------------------------------------------------------
#	  Created by	:	
#	  Created on	:	19-1/-19  
#------------------------------------------------------------------------------
~VERSION INFORMATION
VERS. 2.0 : CWLS Log ASCII Standard - version 2.0
WRAP.  NO : One line per depth step
~WELL INFORMATION
#MNEMONIC   .UNIT                                         VALUE :DESCRIPTION
#------------------------------------------------------------------------------
STRT        .FT                                        106.5000 :START DEPTH
STOP        .FT                                       5877.5000 :STOP DEPTH
STEP        .FT                                          0.5000 :STEP
NULL        .                                         -999.2500 :NULL
COMP        .                      HUSKY OIL NPR OPERATIONS INC :COMPANY
WELL        .                                        KOLUKTAK 1 :WELL
FLD         .                                                   :FIELD
LOC         .                                          UNKNOWN  :LOCATION
CNTY        .                                          UNKNOWN  :LOCATION
STAT        .                                          UNKNOWN  :STATE
CTRY        .                                          UNKNOWN  :COUNTRY
SRVC        .                                          UNKNOWN  :SERVICE COMPANY
DATE        .                                          19-1/-19 :LOG DATE
API         .                                    50119200010000 :API NUMBER
XCOORD      .                                     -84035.982000 :SURFACE X
YCOORD      .                                    5780930.296000 :SURFACE Y
LAT         .                                         69.752392 :LATITUDE
LON         .                                       -154.611139 :LONGITUDE
ELEV        .FT                                     -999.250000 :SURFACE ELEV
ELEV_TYPE   .                                      -999.250000KB :ELEV TYPE
~PARAMETER INFORMATION                                                          
#MNEM.UNIT        VALUE   DESCRIPTION                                           
#---------      --------  -----------                                           
ELEV    .F          313.0: KB ELEVATION                                         
TDD     .F      5877.5000: TOTAL DEPTH DRILLED
~OTHER INFORMATION                                                              
FLS0    .          CIRC                                                         
LGD0    .          10/15/76                                                     
MT0     .          GEL                                                          
FLS0    .          FLOWLONE                                                     
LGD0    .          12/24/76                                                     
MT0     .          GEL/DRISPAC                                                  
FLS0    .          FLOWLINE                                                     
LGD0    .          03/08/77                                                     
MT0     .          GEL-XP-20                                                    
FLS0    .          FLOWLINE                                                     
LGD0    .          03/15/77                                                     
MT0     .          GEL/XP-20   
~CURVE INFORMATION  
#MNEMONIC.UNIT               API CODE: CURVE DESCRIPTION
#------------------------------------------------------------------------------
DEPTH    .FT                  UNKNOWN: Measured Depth
CALI     .                    UNKNOWN: 
CNS      .                    UNKNOWN: 
DT       .                    UNKNOWN: 
GR       .GAPI                UNKNOWN: 
ILD      .OHMM                UNKNOWN: 
ILM      .OHMM                UNKNOWN: 
LL8      .                    UNKNOWN: 
LLD      .                    UNKNOWN: 
LLS      .                    UNKNOWN: 
RHOB     .                    UNKNOWN: 
SP       .MV                  UNKNOWN: 
~A      DEPTH         CALI          CNS           DT           GR          ILD          ILM          LL8          LLD          LLS         RHOB           SP
# ...
     132.0000      13.1490      49.5690    -999.2500      57.6320      21.7100      64.0670     161.4310    -999.2500    -999.2500       2.1800     196.7370
     132.5000      13.1310      49.2840    -999.2500      59.1500      22.1130      61.1800     154.1660    -999.2500    -999.2500       2.1800     197.7370
     133.0000      13.1130      50.4930    -999.2500      60.1500      21.5100      58.9630     144.5410    -999.2500    -999.2500       2.1800     199.2370
     133.5000      13.1090      51.2460    -999.2500      60.8130      20.5420      54.7690     152.7520    -999.2500    -999.2500       2.1830     200.7360
     134.0000      13.1070      50.0390    -999.2500      60.5550      19.9820      43.0910     158.4850    -999.2500    -999.2500       2.1910     202.7360
     134.5000      13.1040      49.1070    -999.2500      60.8220      19.6170      36.8370     144.5410    -999.2500    -999.2500       2.2030     204.7360
     135.0000      13.1020      48.4630    -999.2500      61.5940      19.0820      37.5230     119.1230    -999.2500    -999.2500       2.1950     206.2350
     135.5000      13.0530      47.8190    -999.2500      61.2680      18.3920      39.6580     115.8770    -999.2500    -999.2500       2.2320     207.2350
     136.0000      12.9340      47.2130    -999.2500      63.5360      18.0560      38.2220     113.7620    -999.2500    -999.2500       2.2370     208.7350
     136.5000      12.7710      46.6070    -999.2500      65.8410      17.5640      33.9030     109.6470    -999.2500    -999.2500       2.2670     210.2350
     137.0000      12.7450      46.6930    -999.2500      65.1610      16.9280      30.6310     105.6810    -999.2500    -999.2500       2.3130     211.2350
     137.5000      13.1560      47.1900    -999.2500      64.8210      17.0850      28.4520      97.2750    -999.2500    -999.2500       2.3510     212.4840
     138.0000      13.4890      45.9230    -999.2500      68.4760      17.5640      29.5220      95.4990    -999.2500    -999.2500       2.3620     213.7340
     138.5000      13.3230      45.6830    -999.2500      69.5970      18.2230      32.9770      96.3830    -999.2500    -999.2500       2.2080     214.2340
     139.0000      13.0690      46.7070    -999.2500      70.6810      18.3920      35.8320     100.0000    -999.2500    -999.2500       2.2010     214.7340
     139.5000      12.9100      48.2100    -999.2500      71.7650      18.2230      35.8320     106.6590    -999.2500    -999.2500       2.1980     215.4840
     140.0000      12.8990      49.7130    -999.2500      72.6310      18.0560      32.6740     106.6590    -999.2500    -999.2500       2.2410     215.7340
     140.5000      12.8880      51.2150    -999.2500      73.2550      18.2230      29.5220     100.0000    -999.2500    -999.2500       2.2290     213.7340
     141.0000      12.8960      50.5180    -999.2500      71.3100      18.3920      26.4290     101.8590    -999.2500    -999.2500       2.2280     207.4850
     141.5000      12.9350      49.8580    -999.2500      69.8680      18.9070      24.5490     111.6860    -999.2500    -999.2500       2.2270     199.7360
     142.0000      12.9740      49.1980    -999.2500      68.9560      19.0820      23.2270     127.0550    -999.2500    -999.2500       2.2100     192.2380
     142.5000      12.9880      51.0820    -999.2500      71.8110      19.0820      22.1800     145.8780    -999.2500    -999.2500       2.2420     185.7390
     143.0000      13.1540      53.0350    -999.2500      76.1340      18.5620      21.7750     165.9530    -999.2500    -999.2500       2.2250     179.7400
     143.5000      13.4940      54.5700    -999.2500      81.4700      17.7260      21.7750     165.9530    -999.2500    -999.2500       2.1830     179.7400
     144.0000      13.7970      55.1390    -999.2500      85.9150      17.7260      20.9860     194.0800    -999.2500    -999.2500       2.1310     173.4910
     144.5000      14.0240      55.7420    -999.2500      86.8900      16.6190      18.9610     197.6880    -999.2500    -999.2500       2.1170     166.9920
     145.0000      14.1440      56.4360    -999.2500      87.0960      16.3160      17.2900     201.3630    -999.2500    -999.2500       2.1030     161.7430
     145.5000      14.0340      56.8850    -999.2500      87.5500      16.4670      17.7750     199.5170    -999.2500    -999.2500       2.0870     156.9930
     146.0000      13.9240      56.1680    -999.2500      88.6020      19.0820      19.8560     188.7910    -999.2500    -999.2500       2.0380     152.2440
     146.5000      13.8130      55.8430    -999.2500      94.4570      34.4140      22.5930     188.7910    -999.2500    -999.2500       1.9650     147.4950
     147.0000      13.6890      55.5170    -999.2500      99.2610      37.7360      24.3230     194.0800    -999.2500    -999.2500       1.9260     141.9960
     147.5000      13.5300      55.6590    -999.2500     101.0350      37.7360      24.3230     201.3630    -999.2500    -999.2500       1.8700     136.7470
     148.0000      14.4390      56.4190    -999.2500      94.8510      36.7070      23.8790     197.6880    -999.2500    -999.2500       1.8970     130.9980
     148.5000      14.0430      57.2070    -999.2500      87.3230      37.0470      25.4710     162.9240    -999.2500    -999.2500       1.9160     125.7490
     149.0000      13.7040      56.5280    -999.2500      83.9160      31.3850      24.7760     151.3520    -999.2500    -999.2500       2.0130     120.7490
     149.5000      13.3740      55.5770    -999.2500      81.4100      25.8630      22.5930     158.4850    -999.2500    -999.2500       2.1330     115.7500
     150.0000      13.0840      54.6250    -999.2500      78.1910      29.6970      22.1800     149.9650    -999.2500    -999.2500       2.1490     111.5010
     150.5000      12.7950      53.6740    -999.2500      79.2110      47.0750      25.4710     157.0320    -999.2500    -999.2500       2.1500     106.7520
     151.0000      13.1790      54.3340    -999.2500      80.9740      41.3780      26.6740     185.3460    -999.2500    -999.2500       2.1850     102.0030
     151.5000      13.3710      55.2450    -999.2500      84.3290      39.5150      24.3230     192.3010    -999.2500    -999.2500       2.0850      98.2530
     152.0000      12.6910      56.1570    -999.2500      88.5440      35.7060      22.1800     162.9240    -999.2500    -999.2500       2.1170      95.2540
     152.5000      13.2100      56.8950    -999.2500      90.2880      30.5290      22.3860     151.3520    -999.2500    -999.2500       2.1730      92.0040
     153.0000      13.5590      57.2350    -999.2500      89.5470      22.7330      23.2270     155.5920    -999.2500    -999.2500       2.1070      87.0050
     153.5000      13.9000      57.3010    -999.2500      86.7170      17.5640      24.7760     148.5900    -999.2500    -999.2500       2.0670      83.5060
     154.0000      14.1720      57.1110    -999.2500      85.2570      16.9280      26.6740     139.3130    -999.2500    -999.2500       2.0390      79.2560
     154.5000      14.0200      56.8670    -999.2500      83.8300      16.9280      27.1700     129.4170    -999.2500    -999.2500       2.0240      75.5070
     155.0000      14.1350      56.2870    -999.2500      82.7330      16.9280      26.6740     122.4600    -999.2500    -999.2500       2.0230      72.5070
     155.5000      14.2940      55.6070    -999.2500      82.0360      16.7730      27.4220     112.7190    -999.2500    -999.2500       2.1290      69.5080
     156.0000      13.7190      54.2850    -999.2500      82.4710      16.9280      28.4520     106.6590    -999.2500    -999.2500       2.1600      66.5080
     156.5000      13.2310      52.9630    -999.2500      83.3190      16.6190      30.6310     105.6810    -999.2500    -999.2500       2.1830      63.5090
     157.0000      13.0730      51.6410    -999.2500      80.9270      16.7730      30.3500     109.6470    -999.2500    -999.2500       2.2060      61.0090
