#------------------------------------------------------------------------------
#	  Created by	:	
#	  Created on	:	19-1/-19  
#------------------------------------------------------------------------------
~VERSION INFORMATION
VERS. 2.0 : CWLS Log ASCII Standard - version 2.0
WRAP.  NO : One line per depth step
~WELL INFORMATION
#MNEMONIC   .UNIT                                         VALUE :DESCRIPTION
#------------------------------------------------------------------------------
STRT        .FT                                        106.5000 :START DEPTH
STOP        .FT                                       5877.5000 :STOP DEPTH
STEP        .FT                                          0.5000 :STEP
NULL        .                                         -999.2500 :NULL
COMP        .                      HUSKY OIL NPR OPERATIONS INC :COMPANY
WELL        .                                        KOLUKTAK 1 :WELL
FLD         .                                                   :FIELD
LOC         .                                          UNKNOWN  :LOCATION
CNTY        .                                          UNKNOWN  :LOCATION
STAT        .                                          UNKNOWN  :STATE
CTRY        .                                          UNKNOWN  :COUNTRY
SRVC        .                                          UNKNOWN  :SERVICE COMPANY
DATE        .                                          19-1/-19 :LOG DATE
API         .                                    50119200010000 :API NUMBER
XCOORD      .                                     -84035.982000 :SURFACE X
YCOORD      .                                    5780930.296000 :SURFACE Y
LAT         .                                         69.752392 :LATITUDE
LON         .                                       -154.611139 :LONGITUDE
ELEV        .FT                                     -999.250000 :SURFACE ELEV
ELEV_TYPE   .                                      -999.250000KB :ELEV TYPE
~PARAMETER INFORMATION                                                          
#MNEM.UNIT        VALUE   DESCRIPTION                                           
#---------      --------  -----------                                           
ELEV    .F          313.0: KB ELEVATION                                         
TDD     .F      5877.5000: TOTAL DEPTH DRILLED
~OTHER INFORMATION                                                              
FLS0    .          CIRC                                                         
LGD0    .          10/15/76                                                     
MT0     .          GEL                                                          
FLS0    .          FLOWLONE                                                     
LGD0    .          12/24/76                                                     
MT0     .          GEL/DRISPAC                                                  
FLS0    .          FLOWLINE                                                     
LGD0    .          03/08/77                                                     
MT0     .          GEL-XP-20                                                    
FLS0    .          FLOWLINE                                                     
LGD0    .          03/15/77                                                     
MT0     .          GEL/XP-20   
~CURVE INFORMATION  
#MNEMONIC.UNIT               API CODE: CURVE DESCRIPTION
#------------------------------------------------------------------------------
DEPTH    .FT                  UNKNOWN: Measured Depth
CALI     .                    UNKNOWN: 
CNS      .                    UNKNOWN: 
DT       .                    UNKNOWN: 
GR       .GAPI                UNKNOWN: 
ILD      .OHMM                UNKNOWN: 
ILM      .OHMM                UNKNOWN: 
LL8      .                    UNKNOWN: 
LLD      .                    UNKNOWN: 
LLS      .                    UNKNOWN: 
RHOB     .                    UNKNOWN: 
SP       .MV                  UNKNOWN: 
~A      DEPTH         CALI          CNS           DT           GR          ILD          ILM          LL8          LLD          LLS         RHOB           SP
# ...
    4773.0000      11.9840      30.1030      84.2800      72.1380    -999.2500    -999.2500    -999.2500      12.9380      12.5940       2.4490    -999.2500
    4773.5000      12.1370      29.7100      84.2090      71.3970    -999.2500    -999.2500    -999.2500      12.7030      12.3670       2.4630    -999.2500
    4774.0000      12.3320      29.9190      83.7620      71.8790    -999.2500    -999.2500    -999.2500      12.7030      12.1410       2.4850    -999.2500
    4774.5000      12.6550      29.9820      83.5730      71.7240    -999.2500    -999.2500    -999.2500      12.4690      11.9220       2.5020    -999.2500
    4775.0000      12.9260      29.8700      84.2510      71.8220    -999.2500    -999.2500    -999.2500      12.4690      11.9220       2.5110    -999.2500
    4775.5000      12.3780      30.1720      84.9870      72.5080    -999.2500    -999.2500    -999.2500      12.4690      11.9220       2.5150    -999.2500
    4776.0000      12.4030      30.7880      85.0980      73.1940    -999.2500    -999.2500    -999.2500      12.4690      11.9220       2.4900    -999.2500
    4776.5000      12.3910      31.3620      84.1280      73.6540    -999.2500    -999.2500    -999.2500      12.2420      12.1410       2.4700    -999.2500
    4777.0000      12.0870      31.8600      83.1580      73.3250    -999.2500    -999.2500    -999.2500      12.2420      12.1410       2.4480    -999.2500
    4777.5000      12.1610      32.3590      82.5020      72.9960    -999.2500    -999.2500    -999.2500      12.2420      11.7030       2.4830    -999.2500
    4778.0000      12.2340      31.7210      84.3650      75.2140    -999.2500    -999.2500    -999.2500      12.2420      11.4840       2.4950    -999.2500
    4778.5000      12.3610      31.3400      86.3730      77.5930    -999.2500    -999.2500    -999.2500      11.5780      11.0700       2.5120    -999.2500
    4779.0000      12.6160      31.3580      91.6590      79.1050    -999.2500    -999.2500    -999.2500      11.3670      10.4770       2.4990    -999.2500
    4779.5000      12.7200      31.3810      95.8050      80.6180    -999.2500    -999.2500    -999.2500      10.5630      10.0940       2.4900    -999.2500
    4780.0000      12.1010      31.5160      96.2170      81.3640    -999.2500    -999.2500    -999.2500      11.5780      10.0940       2.5100    -999.2500
    4780.5000      12.0470      31.7980      94.0600      81.3450    -999.2500    -999.2500    -999.2500      12.7030      11.7030       2.4830    -999.2500
    4781.0000      11.9930      32.0800      90.8110      79.7510    -999.2500    -999.2500    -999.2500      12.4690      12.1410       2.4910    -999.2500
    4781.5000      11.9840      31.3250      87.0510      79.5160    -999.2500    -999.2500    -999.2500      12.0160      12.1410       2.5050    -999.2500
    4782.0000      11.5640      30.4170      84.4450      79.4920    -999.2500    -999.2500    -999.2500      11.7970      11.2730       2.5300    -999.2500
    4782.5000      11.7420      29.2180      86.3010      79.5600    -999.2500    -999.2500    -999.2500      11.3670      10.8670       2.5550    -999.2500
    4783.0000      12.0600      29.5240      87.3840      80.0770    -999.2500    -999.2500    -999.2500      11.1640      10.6720       2.4990    -999.2500
    4783.5000      12.0600      30.0540      88.4660      80.5930    -999.2500    -999.2500    -999.2500      11.1640      10.4770       2.5060    -999.2500
    4784.0000      11.9890      30.4910      89.8190      79.5660    -999.2500    -999.2500    -999.2500      11.1640      10.4770       2.5210    -999.2500
    4784.5000      11.9170      30.2020      91.2680      78.4880    -999.2500    -999.2500    -999.2500      11.3670      10.0940       2.5320    -999.2500
    4785.0000      11.8800      30.2850      92.1910      77.4100    -999.2500    -999.2500    -999.2500      11.3670      10.4770       2.5360    -999.2500
    4785.5000      11.8670      30.6750      91.6010      76.3070    -999.2500    -999.2500    -999.2500      11.5780      10.8670       2.5510    -999.2500
    4786.0000      11.7960      30.4200      89.1190      74.9720    -999.2500    -999.2500    -999.2500      11.5780      11.0700       2.5390    -999.2500
    4786.5000      11.7650      29.8270      86.5060      73.6380    -999.2500    -999.2500    -999.2500      11.3670      11.2730       2.5170    -999.2500
    4787.0000      11.9010      29.3730      85.7630      73.0860    -999.2500    -999.2500    -999.2500      11.7970      11.0700       2.5210    -999.2500
    4787.5000      11.9900      29.6970      88.2100      72.7030    -999.2500    -999.2500    -999.2500      11.7970      11.2730       2.5110    -999.2500
    4788.0000      12.1470      30.0210      88.0940      72.1580    -999.2500    -999.2500    -999.2500      12.2420      11.4840       2.4990    -999.2500
    4788.5000      12.3080      29.5470      87.4870      72.4920    -999.2500    -999.2500    -999.2500      12.0160      11.9220       2.4850    -999.2500
    4789.0000      12.4920      28.8620      86.9200      73.9790    -999.2500    -999.2500    -999.2500      12.4690      11.7030       2.4750    -999.2500
    4789.5000      12.1840      28.1780      86.5280      74.6380    -999.2500    -999.2500    -999.2500      12.9380      12.3670       2.4740    -999.2500
    4790.0000      12.0860      28.1460      87.1060      75.1880    -999.2500    -999.2500    -999.2500      13.4220      12.1410       2.4540    -999.2500
    4790.5000      12.2900      28.2620      87.4750      75.1230    -999.2500    -999.2500    -999.2500      13.4220      12.5940       2.4840    -999.2500
    4791.0000      12.5900      28.5050      87.0350      73.0980    -999.2500    -999.2500    -999.2500      13.4220      12.8280       2.5000    -999.2500
    4791.5000      12.1430      28.7490      86.5950      72.4570    -999.2500    -999.2500    -999.2500      12.4690      12.3670       2.5020    -999.2500
    4792.0000      12.2080      28.9730      86.3420      72.2610    -999.2500    -999.2500    -999.2500      12.2420      12.1410       2.4930    -999.2500
    4792.5000      12.3200      29.2580      88.1410      73.4810    -999.2500    -999.2500    -999.2500      11.7970      11.4840       2.4920    -999.2500
    4793.0000      12.6620      30.0510      88.9460      74.8140    -999.2500    -999.2500    -999.2500      11.5780      11.0700       2.5030    -999.2500
    4793.5000      12.9280      30.8440      89.0270      76.4200    -999.2500    -999.2500    -999.2500      11.7970      10.8670       2.4870    -999.2500
    4794.0000      12.9980      30.7310      89.1080      77.7740    -999.2500    -999.2500    -999.2500      12.2420      11.2730       2.4840    -999.2500
    4794.5000      12.1910      30.5110      87.7330      75.0450    -999.2500    -999.2500    -999.2500      12.2420      11.4840       2.4690    -999.2500
    4795.0000      12.2730      30.2920      85.8610      74.6560    -999.2500    -999.2500    -999.2500      12.0160      11.4840       2.4910    -999.2500
    4795.5000      12.3890      30.0770      83.7650      76.7590    -999.2500    -999.2500    -999.2500      12.0160      11.0700       2.4680    -999.2500
    4796.0000      12.1210      29.8860      85.1880      79.1790    -999.2500    -999.2500    -999.2500      12.0160      11.0700       2.4540    -999.2500
    4796.5000      12.4060      29.7170      87.2240      81.2270    -999.2500    -999.2500    -999.2500      12.2420      11.4840       2.4720    -999.2500
    4797.0000      12.9680      29.7790      87.4390      77.6260    -999.2500    -999.2500    -999.2500      12.7030      11.9220       2.4820    -999.2500
    4797.5000      13.1500      29.9240      87.6540      77.6290    -999.2500    -999.2500    -999.2500      13.1800      12.8280       2.4910    -999.2500
    4798.0000      12.3630      29.9360      89.3010      77.6340    -999.2500    -999.2500    -999.2500      13.4220      12.5940       2.5160    -999.2500
