#------------------------------------------------------------------------------
#	  Created by	:	
#	  Created on	:	19-1/-19  
#------------------------------------------------------------------------------
~VERSION INFORMATION
VERS. 2.0 : CWLS Log ASCII Standard - version 2.0
WRAP.  NO : One line per depth step
~WELL INFORMATION
#MNEMONIC   .UNIT                                         VALUE :DESCRIPTION
#------------------------------------------------------------------------------
STRT        .FT                                        106.5000 :START DEPTH
STOP        .FT                                       5877.5000 :STOP DEPTH
STEP        .FT                                          0.5000 :STEP
NULL        .                                         -999.2500 :NULL
COMP        .                      HUSKY OIL NPR OPERATIONS INC :COMPANY
WELL        .                                        KOLUKTAK 1 :WELL
FLD         .                                                   :FIELD
LOC         .                                          UNKNOWN  :LOCATION
CNTY        .                                          UNKNOWN  :LOCATION
STAT        .                                          UNKNOWN  :STATE
CTRY        .                                          UNKNOWN  :COUNTRY
SRVC        .                                          UNKNOWN  :SERVICE COMPANY
DATE        .                                          19-1/-19 :LOG DATE
API         .                                    50119200010000 :API NUMBER
XCOORD      .                                     -84035.982000 :SURFACE X
YCOORD      .                                    5780930.296000 :SURFACE Y
LAT         .                                         69.752392 :LATITUDE
LON         .                                       -154.611139 :LONGITUDE
ELEV        .FT                                     -999.250000 :SURFACE ELEV
ELEV_TYPE   .                                      -999.250000KB :ELEV TYPE
~PARAMETER INFORMATION                                                          
#MNEM.UNIT        VALUE   DESCRIPTION                                           
#---------      --------  -----------                                           
ELEV    .F          313.0: KB ELEVATION                                         
TDD     .F      5877.5000: TOTAL DEPTH DRILLED
~OTHER INFORMATION                                                              
FLS0    .          CIRC                                                         
LGD0    .          10/15/76                                                     
MT0     .          GEL                                                          
FLS0    .          FLOWLONE                                                     
LGD0    .          12/24/76                                                     
MT0     .          GEL/DRISPAC                                                  
FLS0    .          FLOWLINE                                                     
LGD0    .          03/08/77                                                     
MT0     .          GEL-XP-20                                                    
FLS0    .          FLOWLINE                                                     
LGD0    .          03/15/77                                                     
MT0     .          GEL/XP-20   
~CURVE INFORMATION  
#MNEMONIC.UNIT               API CODE: CURVE DESCRIPTION
#------------------------------------------------------------------------------
DEPTH    .FT                  UNKNOWN: Measured Depth
CALI     .                    UNKNOWN: 
CNS      .                    UNKNOWN: 
DT       .                    UNKNOWN: 
GR       .GAPI                UNKNOWN: 
ILD      .OHMM                UNKNOWN: 
ILM      .OHMM                UNKNOWN: 
LL8      .                    UNKNOWN: 
LLD      .                    UNKNOWN: 
LLS      .                    UNKNOWN: 
RHOB     .                    UNKNOWN: 
SP       .MV                  UNKNOWN: 
~A      DEPTH         CALI          CNS           DT           GR          ILD          ILM          LL8          LLD          LLS         RHOB           SP
# ...
    1458.0000      12.8610      28.5560      82.6680      84.5040      13.4450      32.9770      30.7630    -999.2500    -999.2500       2.5380      39.0130
    1458.5000      12.8660      29.7630      83.1490      83.6970      13.4450      32.9770      31.9180    -999.2500    -999.2500       2.5240      39.0130
    1459.0000      12.8700      30.2620      83.6300      87.8300      13.2000      32.9770      31.9180    -999.2500    -999.2500       2.5330      39.5130
    1459.5000      12.8420      30.5380      83.8290      89.7650      12.9590      32.6740      31.9180    -999.2500    -999.2500       2.5620      39.7630
    1460.0000      12.8030      30.6820      82.9260      89.2700      13.2000      33.5910      31.9180    -999.2500    -999.2500       2.5550      40.0130
    1460.5000      12.7720      30.7770      82.0230      88.5200      13.2000      34.2170      32.5110    -999.2500    -999.2500       2.5480      39.0130
    1461.0000      12.7930      30.7620      82.1320      87.5930      13.0790      32.9770      32.8120    -999.2500    -999.2500       2.5830      38.0130
    1461.5000      12.8130      30.4870      82.3700      84.6370      13.0790      31.7830      31.3350    -999.2500    -999.2500       2.5980      37.7630
    1462.0000      12.8340      30.0940      82.6070      81.1660      13.0790      31.7830      27.7990    -999.2500    -999.2500       2.5640      38.0130
    1462.5000      12.8220      29.5900      83.2780      78.5230      13.3220      32.6740      27.0420    -999.2500    -999.2500       2.5320      37.5130
    1463.0000      12.7940      29.7050      84.1850      79.3460      13.2000      33.2830      30.7630    -999.2500    -999.2500       2.5240      36.7630
    1463.5000      12.7660      29.7380      85.0930      80.3620      13.0790      32.3750      37.6730    -999.2500    -999.2500       2.5670      36.7630
    1464.0000      12.7420      29.3960      86.1200      79.2980      12.7220      29.7950      41.3070    -999.2500    -999.2500       2.5740      37.5130
    1464.5000      12.7180      28.9040      87.1470      76.0400      12.4900      26.4290      32.8120    -999.2500    -999.2500       2.5420      38.5130
    1465.0000      12.6940      28.5420      87.9750      72.2680      12.2620      24.5490      24.8910    -999.2500    -999.2500       2.5300      39.5130
    1465.5000      12.7170      28.9080      88.4420      69.9360      12.2620      23.8790      21.0880    -999.2500    -999.2500       2.5180      40.5130
    1466.0000      12.7450      31.3730      88.9090      76.9960      12.0380      23.4420      20.8950    -999.2500    -999.2500       2.5090      41.0130
    1466.5000      12.7740      33.8370      89.5910      84.6030      11.7100      22.1800      22.0820    -999.2500    -999.2500       2.5420      41.5130
    1467.0000      12.8500      36.6390      90.5490      95.8890      11.3900      20.6020      21.8800    -999.2500    -999.2500       2.5510      42.2620
    1467.5000      12.9270      36.2410      91.5080      99.2140      10.8770      19.6740      20.1390    -999.2500    -999.2500       2.5350      43.0120
    1468.0000      12.9460      35.9070      92.3860      99.5620      10.5810      18.6150      18.8820    -999.2500    -999.2500       2.5500      43.2620
    1468.5000      12.9530      35.4300      93.2570     101.0230      10.2920      17.6120      18.0320    -999.2500    -999.2500       2.5550      43.5120
    1469.0000      12.9480      36.8080      94.1280     102.4840      10.0120      16.2090      16.9060    -999.2500    -999.2500       2.5390      44.2620
    1469.5000      12.9470      37.7950      94.9990     105.2470       9.5610      14.9180      15.7050    -999.2500    -999.2500       2.5530      44.5120
    1470.0000      12.9670      38.7820      96.8400     108.3980       9.3000      14.2460      14.9990    -999.2500    -999.2500       2.5610      44.7620
    1470.5000      13.0000      40.1390      99.0170     109.5980       9.1310      13.6040      14.4560    -999.2500    -999.2500       2.5050      45.5120
    1471.0000      13.1090      41.1830     101.5600     110.2690       8.9640      13.4790      13.3060    -999.2500    -999.2500       2.4830      46.0120
    1471.5000      13.2180      42.2270     104.2960     110.6580       8.8000      13.6040      13.1840    -999.2500    -999.2500       2.4520      46.2620
    1472.0000      13.2880      43.2710     106.7830     111.4290       8.7190      13.7300      14.4560    -999.2500    -999.2500       2.4340      46.5120
    1472.5000      13.2350      44.3150     109.1320     113.1080       8.5600      13.6040      16.7510    -999.2500    -999.2500       2.4140      47.0120
    1473.0000      13.1230      45.3590     110.9960     114.7870       8.4820      13.1110      16.1460    -999.2500    -999.2500       2.4120      47.2620
    1473.5000      13.0120      46.1870     111.9740     117.0850       8.4040      12.6360      14.5900    -999.2500    -999.2500       2.3950      47.0120
    1474.0000      12.9050      44.4250     111.4670     117.6600       8.4040      12.6360      13.6790    -999.2500    -999.2500       2.4200      46.2620
    1474.5000      12.8860      43.5330     110.5680     115.0710       8.4820      12.6360      14.1920    -999.2500    -999.2500       2.4520      46.0120
    1475.0000      12.9750      43.1810     109.6690     116.5290       8.4820      12.7530      14.4560    -999.2500    -999.2500       2.4850      46.5120
    1475.5000      12.9840      43.6280     108.7880     118.4840       8.4820      12.9900      14.1920    -999.2500    -999.2500       2.5120      46.5120
    1476.0000      12.9940      42.9550     107.9390     117.7780       8.4040      12.9900      14.5900    -999.2500    -999.2500       2.4930      46.7620
    1476.5000      12.9930      42.2490     107.0920     116.5170       8.3270      12.7530      15.4190    -999.2500    -999.2500       2.4740      46.5120
    1477.0000      12.9800      41.5550     106.2630     114.2430       8.2500      12.5200      14.9990    -999.2500    -999.2500       2.4490      46.7620
    1477.5000      12.9670      41.9170     105.4350     113.0400       8.2500      12.0660      13.8060    -999.2500    -999.2500       2.4640      46.7620
    1478.0000      13.0010      42.7450     105.8280     118.2380       8.2500      12.1780      13.1840    -999.2500    -999.2500       2.4880      47.0120
    1478.5000      13.0500      43.5840     106.6830     120.2870       8.2500      12.5200      13.4290    -999.2500    -999.2500       2.5010      47.5120
    1479.0000      13.0990      44.4530     107.5380     117.8130       8.1750      12.4050      13.6790    -999.2500    -999.2500       2.4810      47.5120
    1479.5000      13.1120      45.0110     108.3930     116.5220       8.1000      12.0660      13.6790    -999.2500    -999.2500       2.4700      48.0110
    1480.0000      13.1040      45.2850     108.7470     121.1980       8.0260      11.9560      13.1840    -999.2500    -999.2500       2.4700      48.0110
    1480.5000      13.0190      45.2840     108.0310     118.7540       8.2500      11.9560      13.1840    -999.2500    -999.2500       2.4680      48.2610
    1481.0000      12.9330      44.7730     107.3150     120.7970       8.3270      11.7370      13.5540    -999.2500    -999.2500       2.5200      48.5110
    1481.5000      12.9090      43.9440     107.4530     117.8200       8.1750      11.4170      13.1840    -999.2500    -999.2500       2.4910      48.7610
    1482.0000      12.9270      43.0950     108.2540     113.6550       8.1000      11.3120      12.8250    -999.2500    -999.2500       2.5190      49.0110
    1482.5000      12.9500      42.6640     109.0540     111.4310       8.0260      11.0030      13.3060    -999.2500    -999.2500       2.5020      50.2610
    1483.0000      13.0000      43.1450     109.8550     110.0030       7.8790      10.2200      13.4290    -999.2500    -999.2500       2.4880      50.7610
