#------------------------------------------------------------------------------
#	  Created by	:	
#	  Created on	:	19-1/-19  
#------------------------------------------------------------------------------
~VERSION INFORMATION
VERS. 2.0 : CWLS Log ASCII Standard - version 2.0
WRAP.  NO : One line per depth step
~WELL INFORMATION
#MNEMONIC   .UNIT                                         VALUE :DESCRIPTION
#------------------------------------------------------------------------------
STRT        .FT                                        106.5000 :START DEPTH
STOP        .FT                                       5877.5000 :STOP DEPTH
STEP        .FT                                          0.5000 :STEP
NULL        .                                         -999.2500 :NULL
COMP        .                      HUSKY OIL NPR OPERATIONS INC :COMPANY
WELL        .                                        KOLUKTAK 1 :WELL
FLD         .                                                   :FIELD
LOC         .                                          UNKNOWN  :LOCATION
CNTY        .                                          UNKNOWN  :LOCATION
STAT        .                                          UNKNOWN  :STATE
CTRY        .                                          UNKNOWN  :COUNTRY
SRVC        .                                          UNKNOWN  :SERVICE COMPANY
DATE        .                                          19-1/-19 :LOG DATE
API         .                                    50119200010000 :API NUMBER
XCOORD      .                                     -84035.982000 :SURFACE X
YCOORD      .                                    5780930.296000 :SURFACE Y
LAT         .                                         69.752392 :LATITUDE
LON         .                                       -154.611139 :LONGITUDE
ELEV        .FT                                     -999.250000 :SURFACE ELEV
ELEV_TYPE   .                                      -999.250000KB :ELEV TYPE
~PARAMETER INFORMATION                                                          
#MNEM.UNIT        VALUE   DESCRIPTION                                           
#---------      --------  -----------                                           
ELEV    .F          313.0: KB ELEVATION                                         
TDD     .F      5877.5000: TOTAL DEPTH DRILLED
~OTHER INFORMATION                                                              
FLS0    .          CIRC                                                         
LGD0    .          10/15/76                                                     
MT0     .          GEL                                                          
FLS0    .          FLOWLONE                                                     
LGD0    .          12/24/76                                                     
MT0     .          GEL/DRISPAC                                                  
FLS0    .          FLOWLINE                                                     
LGD0    .          03/08/77                                                     
MT0     .          GEL-XP-20                                                    
FLS0    .          FLOWLINE                                                     
LGD0    .          03/15/77                                                     
MT0     .          GEL/XP-20   
~CURVE INFORMATION  
#MNEMONIC.UNIT               API CODE: CURVE DESCRIPTION
#------------------------------------------------------------------------------
DEPTH    .FT                  UNKNOWN: Measured Depth
CALI     .                    UNKNOWN: 
CNS      .                    UNKNOWN: 
DT       .                    UNKNOWN: 
GR       .GAPI                UNKNOWN: 
ILD      .OHMM                UNKNOWN: 
ILM      .OHMM                UNKNOWN: 
LL8      .                    UNKNOWN: 
LLD      .                    UNKNOWN: 
LLS      .                    UNKNOWN: 
RHOB     .                    UNKNOWN: 
SP       .MV                  UNKNOWN: 
~A      DEPTH         CALI          CNS           DT           GR          ILD          ILM          LL8          LLD          LLS         RHOB           SP
# ...
    2452.5000      10.4580      27.7850      76.2440      53.3290    -999.2500    -999.2500    -999.2500      30.7970      26.3130       2.4440    -999.2500
    2453.0000      10.5620      28.1350      76.3230      53.9920    -999.2500    -999.2500    -999.2500      30.2340      26.3130       2.4410    -999.2500
    2453.5000      10.2010      28.3400      76.4670      54.8340    -999.2500    -999.2500    -999.2500      29.1410      26.8130       2.4620    -999.2500
    2454.0000      10.1970      28.0570      76.6780      55.6760    -999.2500    -999.2500    -999.2500      25.1410      23.1250       2.4780    -999.2500
    2454.5000      10.2270      27.7740      76.9360      56.5180    -999.2500    -999.2500    -999.2500      23.3590      19.5940       2.4810    -999.2500
    2455.0000      10.3220      27.6140      77.9510      57.1600    -999.2500    -999.2500    -999.2500      19.0630      18.2030       2.4890    -999.2500
    2455.5000      10.3750      29.6890      79.0680      57.1360    -999.2500    -999.2500    -999.2500      20.5160      20.7030       2.5020    -999.2500
    2456.0000      10.4640      31.1320      80.1840      56.4650    -999.2500    -999.2500    -999.2500      24.2340      21.8910       2.5070    -999.2500
    2456.5000      10.8530      32.5760      81.0410      55.7930    -999.2500    -999.2500    -999.2500      25.6090      22.7030       2.5050    -999.2500
    2457.0000      11.4480      31.1970      79.8240      55.6170    -999.2500    -999.2500    -999.2500      23.7810      19.9530       2.5230    -999.2500
    2457.5000      11.8820      29.7690      78.6060      57.2900    -999.2500    -999.2500    -999.2500      22.5000      17.8750       2.5310    -999.2500
    2458.0000      11.3330      27.7150      77.3890      59.0400    -999.2500    -999.2500    -999.2500      21.2970      18.5470       2.5320    -999.2500
    2458.5000      10.7830      27.7520      76.1720      58.6310    -999.2500    -999.2500    -999.2500      24.2340      21.0940       2.5100    -999.2500
    2459.0000      10.2330      27.8170      75.1080      55.4560    -999.2500    -999.2500    -999.2500      30.7970      23.1250       2.5080    -999.2500
    2459.5000      10.1110      27.9460      75.4570      52.0740    -999.2500    -999.2500    -999.2500      34.4060      27.2970       2.5030    -999.2500
    2460.0000      10.2960      28.1720      75.8070      50.4120    -999.2500    -999.2500    -999.2500      34.4060      28.3280       2.4860    -999.2500
    2460.5000      10.4730      27.9830      76.1570      51.3190    -999.2500    -999.2500    -999.2500      33.1560      28.3280       2.4740    -999.2500
    2461.0000      10.5100      27.8290      76.2940      53.3430    -999.2500    -999.2500    -999.2500      32.5620      26.3130       2.4660    -999.2500
    2461.5000      10.5460      28.0600      76.3880      55.2710    -999.2500    -999.2500    -999.2500      31.3750      25.8280       2.4710    -999.2500
    2462.0000      10.5960      28.2900      76.3560      56.7750    -999.2500    -999.2500    -999.2500      31.9690      25.3590       2.4660    -999.2500
    2462.5000      10.6530      27.6860      76.1640      57.1160    -999.2500    -999.2500    -999.2500      31.3750      25.8280       2.4590    -999.2500
    2463.0000      10.7110      27.3000      75.9760      56.6630    -999.2500    -999.2500    -999.2500      33.1560      24.9060       2.4810    -999.2500
    2463.5000      10.7690      27.1470      75.8320      56.2610    -999.2500    -999.2500    -999.2500      31.9690      25.3590       2.4970    -999.2500
    2464.0000      10.8120      27.0010      75.6880      55.8260    -999.2500    -999.2500    -999.2500      31.9690      24.9060       2.5030    -999.2500
    2464.5000      10.8110      26.8680      75.7270      55.3910    -999.2500    -999.2500    -999.2500      34.4060      25.8280       2.4980    -999.2500
    2465.0000      10.8110      26.7360      75.8210      54.9560    -999.2500    -999.2500    -999.2500      35.6870      27.2970       2.5110    -999.2500
    2465.5000      10.4770      26.6390      75.9460      54.5210    -999.2500    -999.2500    -999.2500      37.0310      26.8130       2.5250    -999.2500
    2466.0000      10.5110      27.9420      76.0900      54.1710    -999.2500    -999.2500    -999.2500      37.0310      26.3130       2.5350    -999.2500
    2466.5000      10.5520      28.8580      76.1240      54.1030    -999.2500    -999.2500    -999.2500      35.0310      26.3130       2.5410    -999.2500
    2467.0000      10.5920      28.5080      76.0490      54.0610    -999.2500    -999.2500    -999.2500      33.1560      26.3130       2.5140    -999.2500
    2467.5000      10.6330      28.3730      75.9750      54.7640    -999.2500    -999.2500    -999.2500      33.7810      26.3130       2.4960    -999.2500
    2468.0000      10.6470      28.2860      75.9000      55.2370    -999.2500    -999.2500    -999.2500      33.7810      25.8280       2.4810    -999.2500
    2468.5000      10.6190      28.2440      75.8520      54.5330    -999.2500    -999.2500    -999.2500      35.0310      25.8280       2.4690    -999.2500
    2469.0000      10.4520      28.2020      75.8090      54.0980    -999.2500    -999.2500    -999.2500      36.3750      25.8280       2.4610    -999.2500
    2469.5000      10.5350      27.7310      75.7650      53.9520    -999.2500    -999.2500    -999.2500      36.3750      25.8280       2.4800    -999.2500
    2470.0000      10.7280      27.2920      75.7800      53.6030    -999.2500    -999.2500    -999.2500      36.3750      26.3130       2.4930    -999.2500
    2470.5000      10.8230      26.8530      75.8840      52.9020    -999.2500    -999.2500    -999.2500      36.3750      26.3130       2.5010    -999.2500
    2471.0000      10.7230      26.6550      75.9540      53.7810    -999.2500    -999.2500    -999.2500      35.0310      26.3130       2.4830    -999.2500
    2471.5000      10.7910      27.1110      75.9220      54.9520    -999.2500    -999.2500    -999.2500      35.0310      26.3130       2.4910    -999.2500
    2472.0000      10.8990      27.5670      75.8890      56.1220    -999.2500    -999.2500    -999.2500      35.6870      26.3130       2.4790    -999.2500
    2472.5000      11.0070      27.9020      75.8750      57.2380    -999.2500    -999.2500    -999.2500      35.6870      26.3130       2.4900    -999.2500
    2473.0000      11.1280      27.7040      75.8610      58.3070    -999.2500    -999.2500    -999.2500      37.0310      25.8280       2.5020    -999.2500
    2473.5000      11.2720      27.5070      75.9010      59.0150    -999.2500    -999.2500    -999.2500      37.0310      26.3130       2.4970    -999.2500
    2474.0000      10.8570      27.2460      76.0160      59.6060    -999.2500    -999.2500    -999.2500      37.7190      26.3130       2.4920    -999.2500
    2474.5000      10.5900      26.9350      76.1300      59.7340    -999.2500    -999.2500    -999.2500      37.0310      25.8280       2.4890    -999.2500
    2475.0000      10.5990      26.8770      76.2700      58.9090    -999.2500    -999.2500    -999.2500      35.6870      26.3130       2.4820    -999.2500
    2475.5000      10.6110      27.1310      76.4970      58.4170    -999.2500    -999.2500    -999.2500      35.6870      26.3130       2.4720    -999.2500
    2476.0000      10.6310      27.0830      76.7230      58.5390    -999.2500    -999.2500    -999.2500      35.0310      26.3130       2.4610    -999.2500
    2476.5000      10.6870      26.7350      77.1180      58.7150    -999.2500    -999.2500    -999.2500      35.6870      25.8280       2.4450    -999.2500
    2477.0000      10.5050      26.4290      77.5290      58.8900    -999.2500    -999.2500    -999.2500      35.6870      25.8280       2.4420    -999.2500
    2477.5000      10.6710      26.3290      77.1280      59.0650    -999.2500    -999.2500    -999.2500      34.4060      25.3590       2.4380    -999.2500
