#------------------------------------------------------------------------------
#	  Created by	:	
#	  Created on	:	19-1/-19  
#------------------------------------------------------------------------------
~VERSION INFORMATION
VERS. 2.0 : CWLS Log ASCII Standard - version 2.0
WRAP.  NO : One line per depth step
~WELL INFORMATION
#MNEMONIC   .UNIT                                         VALUE :DESCRIPTION
#------------------------------------------------------------------------------
STRT        .FT                                        106.5000 :START DEPTH
STOP        .FT                                       5877.5000 :STOP DEPTH
STEP        .FT                                          0.5000 :STEP
NULL        .                                         -999.2500 :NULL
COMP        .                      HUSKY OIL NPR OPERATIONS INC :COMPANY
WELL        .                                        KOLUKTAK 1 :WELL
FLD         .                                                   :FIELD
LOC         .                                          UNKNOWN  :LOCATION
CNTY        .                                          UNKNOWN  :LOCATION
STAT        .                                          UNKNOWN  :STATE
CTRY        .                                          UNKNOWN  :COUNTRY
SRVC        .                                          UNKNOWN  :SERVICE COMPANY
DATE        .                                          19-1/-19 :LOG DATE
API         .                                    50119200010000 :API NUMBER
XCOORD      .                                     -84035.982000 :SURFACE X
YCOORD      .                                    5780930.296000 :SURFACE Y
LAT         .                                         69.752392 :LATITUDE
LON         .                                       -154.611139 :LONGITUDE
ELEV        .FT                                     -999.250000 :SURFACE ELEV
ELEV_TYPE   .                                      -999.250000KB :ELEV TYPE
~PARAMETER INFORMATION                                                          
#MNEM.UNIT        VALUE   DESCRIPTION                                           
#---------      --------  -----------                                           
ELEV    .F          313.0: KB ELEVATION                                         
TDD     .F      5877.5000: TOTAL DEPTH DRILLED
~OTHER INFORMATION                                                              
FLS0    .          CIRC                                                         
LGD0    .          10/15/76                                                     
MT0     .          GEL                                                          
FLS0    .          FLOWLONE                                                     
LGD0    .          12/24/76                                                     
MT0     .          GEL/DRISPAC                                                  
FLS0    .          FLOWLINE                                                     
LGD0    .          03/08/77                                                     
MT0     .          GEL-XP-20                                                    
FLS0    .          FLOWLINE                                                     
LGD0    .          03/15/77                                                     
MT0     .          GEL/XP-20   
~CURVE INFORMATION  
#MNEMONIC.UNIT               API CODE: CURVE DESCRIPTION
#------------------------------------------------------------------------------
DEPTH    .FT                  UNKNOWN: Measured Depth
CALI     .                    UNKNOWN: 
CNS      .                    UNKNOWN: 
DT       .                    UNKNOWN: 
GR       .GAPI                UNKNOWN: 
ILD      .OHMM                UNKNOWN: 
ILM      .OHMM                UNKNOWN: 
LL8      .                    UNKNOWN: 
LLD      .                    UNKNOWN: 
LLS      .                    UNKNOWN: 
RHOB     .                    UNKNOWN: 
SP       .MV                  UNKNOWN: 
~A      DEPTH         CALI          CNS           DT           GR          ILD          ILM          LL8          LLD          LLS         RHOB           SP
# ...
    3115.5000      12.1730      24.0860      75.5190      59.6060    -999.2500    -999.2500    -999.2500      37.7190      31.6410       2.5860    -999.2500
    3116.0000      12.3410      24.8560      76.7010      60.9160    -999.2500    -999.2500    -999.2500      33.1560      29.9380       2.5990    -999.2500
    3116.5000      12.6270      25.8730      77.7580      66.3020    -999.2500    -999.2500    -999.2500      31.9690      27.8130       2.6270    -999.2500
    3117.0000      12.4830      26.8910      76.2920      68.9310    -999.2500    -999.2500    -999.2500      31.9690      27.2970       2.5940    -999.2500
    3117.5000      12.3310      27.9080      75.9390      69.3170    -999.2500    -999.2500    -999.2500      31.9690      30.5000       2.5840    -999.2500
    3118.0000      12.1790      28.5590      75.6400      67.6120    -999.2500    -999.2500    -999.2500      31.3750      31.6410       2.6020    -999.2500
    3118.5000      12.1500      26.8230      72.1990      65.2090    -999.2500    -999.2500    -999.2500      31.3750      28.3280       2.6110    -999.2500
    3119.0000      12.1490      26.2320      69.4730      62.4520    -999.2500    -999.2500    -999.2500      31.9690      27.8130       2.6150    -999.2500
    3119.5000      12.0090      25.6410      66.5960      59.6740    -999.2500    -999.2500    -999.2500      35.0310      35.3440       2.6180    -999.2500
    3120.0000      11.8350      24.4450      65.6780      57.0360    -999.2500    -999.2500    -999.2500      41.3750      41.7190       2.6110    -999.2500
    3120.5000      11.7120      22.9960      72.9010      55.4310    -999.2500    -999.2500    -999.2500      44.5620      43.2810       2.6440    -999.2500
    3121.0000      11.8460      21.5460      76.7090      54.8100    -999.2500    -999.2500    -999.2500      55.5940      36.0000       2.6570    -999.2500
    3121.5000      12.0450      20.6380      79.1310      59.0350    -999.2500    -999.2500    -999.2500      49.7810      33.4370       2.6550    -999.2500
    3122.0000      12.1810      23.6520      79.8740      63.2640    -999.2500    -999.2500    -999.2500      33.7810      30.5000       2.6220    -999.2500
    3122.5000      12.3100      25.8470      80.3400      65.4340    -999.2500    -999.2500    -999.2500      28.0940      26.8130       2.6060    -999.2500
    3123.0000      12.4130      27.8850      78.2320      66.1240    -999.2500    -999.2500    -999.2500      25.1410      25.3590       2.6000    -999.2500
    3123.5000      12.4840      27.9780      77.3110      66.0800    -999.2500    -999.2500    -999.2500      26.0940      24.9060       2.5750    -999.2500
    3124.0000      12.4890      28.0720      76.5750      66.0350    -999.2500    -999.2500    -999.2500      27.5780      27.8130       2.5680    -999.2500
    3124.5000      12.5030      27.9730      77.3920      67.7730    -999.2500    -999.2500    -999.2500      29.1410      28.3280       2.5980    -999.2500
    3125.0000      12.5190      26.9640      78.4250      68.7470    -999.2500    -999.2500    -999.2500      30.2340      27.8130       2.6220    -999.2500
    3125.5000      12.6290      25.7240      79.9470      68.2670    -999.2500    -999.2500    -999.2500      29.6880      26.8130       2.6330    -999.2500
    3126.0000      12.7720      26.3590      76.2880      68.4340    -999.2500    -999.2500    -999.2500      28.0940      24.9060       2.6400    -999.2500
    3126.5000      12.8540      27.1000      72.4080      68.4330    -999.2500    -999.2500    -999.2500      26.0940      23.5630       2.6480    -999.2500
    3127.0000      12.6280      27.8400      69.8860      67.3410    -999.2500    -999.2500    -999.2500      26.0940      22.7030       2.6520    -999.2500
    3127.5000      12.4970      26.9620      69.4050      65.9410    -999.2500    -999.2500    -999.2500      39.8750      31.6410       2.6290    -999.2500
    3128.0000      12.5000      25.2800      75.6810      63.0040    -999.2500    -999.2500    -999.2500      45.3750      39.4690       2.6320    -999.2500
    3128.5000      12.5020      23.5970      79.0330      60.8470    -999.2500    -999.2500    -999.2500      45.3750      39.4690       2.6070    -999.2500
    3129.0000      12.5830      22.6120      80.1980      59.6370    -999.2500    -999.2500    -999.2500      44.5620      34.0620       2.6280    -999.2500
    3129.5000      12.7240      25.2710      81.3630      67.5870    -999.2500    -999.2500    -999.2500      32.5620      27.8130       2.6180    -999.2500
    3130.0000      12.7960      26.9620      81.7580      71.3380    -999.2500    -999.2500    -999.2500      27.0630      22.7030       2.6270    -999.2500
    3130.5000      12.8290      28.6530      80.2500      70.2020    -999.2500    -999.2500    -999.2500      25.6090      21.0940       2.6470    -999.2500
    3131.0000      12.8610      30.3450      78.7310      69.0650    -999.2500    -999.2500    -999.2500      25.1410      20.7030       2.6200    -999.2500
    3131.5000      12.8940      30.2130      77.3050      67.9060    -999.2500    -999.2500    -999.2500      25.1410      20.7030       2.6070    -999.2500
    3132.0000      12.9610      29.4120      75.8800      66.9090    -999.2500    -999.2500    -999.2500      26.0940      21.4840       2.6160    -999.2500
    3132.5000      13.0430      28.5780      74.3830      70.1950    -999.2500    -999.2500    -999.2500      27.5780      25.3590       2.6230    -999.2500
    3133.0000      13.1260      27.7460      74.1940      68.9330    -999.2500    -999.2500    -999.2500      31.9690      28.3280       2.6270    -999.2500
    3133.5000      12.9740      26.8570      77.3270      67.0760    -999.2500    -999.2500    -999.2500      33.7810      29.9380       2.6080    -999.2500
    3134.0000      12.9820      25.9070      81.7200      65.1860    -999.2500    -999.2500    -999.2500      33.7810      27.8130       2.6140    -999.2500
    3134.5000      13.0270      26.6260      83.0200      66.2700    -999.2500    -999.2500    -999.2500      30.7970      25.3590       2.5870    -999.2500
    3135.0000      13.0950      27.4250      82.2690      67.5930    -999.2500    -999.2500    -999.2500      28.6090      23.5630       2.5680    -999.2500
    3135.5000      13.2340      28.2230      81.4130      67.8720    -999.2500    -999.2500    -999.2500      24.6880      20.7030       2.5650    -999.2500
    3136.0000      13.2410      28.6670      80.5980      67.9900    -999.2500    -999.2500    -999.2500      23.3590      19.5940       2.5590    -999.2500
    3136.5000      13.2190      28.7390      80.8070      68.1380    -999.2500    -999.2500    -999.2500      23.3590      19.5940       2.6040    -999.2500
    3137.0000      13.1970      28.9660      81.0170      68.3030    -999.2500    -999.2500    -999.2500      25.6090      20.7030       2.6140    -999.2500
    3137.5000      13.1700      29.4940      81.2910      68.7780    -999.2500    -999.2500    -999.2500      26.0940      20.3280       2.5790    -999.2500
    3138.0000      13.1400      30.3270      81.6730      69.5170    -999.2500    -999.2500    -999.2500      25.6090      20.7030       2.5920    -999.2500
    3138.5000      13.1180      30.1360      81.6570      70.2060    -999.2500    -999.2500    -999.2500      25.6090      20.7030       2.6020    -999.2500
    3139.0000      13.1550      29.9450      81.2720      71.0680    -999.2500    -999.2500    -999.2500      25.6090      20.3280       2.5890    -999.2500
    3139.5000      13.1760      30.2720      80.8870      72.3290    -999.2500    -999.2500    -999.2500      25.6090      20.7030       2.5960    -999.2500
    3140.0000      13.1890      30.6380      80.5030      73.4360    -999.2500    -999.2500    -999.2500      26.0940      20.7030       2.6030    -999.2500
    3140.5000      13.2010      31.0040      80.3760      74.0250    -999.2500    -999.2500    -999.2500      25.6090      21.0940       2.5820    -999.2500
