#------------------------------------------------------------------------------
#	  Created by	:	
#	  Created on	:	19-1/-19  
#------------------------------------------------------------------------------
~VERSION INFORMATION
VERS. 2.0 : CWLS Log ASCII Standard - version 2.0
WRAP.  NO : One line per depth step
~WELL INFORMATION
#MNEMONIC   .UNIT                                         VALUE :DESCRIPTION
#------------------------------------------------------------------------------
STRT        .FT                                        106.5000 :START DEPTH
STOP        .FT                                       5877.5000 :STOP DEPTH
STEP        .FT                                          0.5000 :STEP
NULL        .                                         -999.2500 :NULL
COMP        .                      HUSKY OIL NPR OPERATIONS INC :COMPANY
WELL        .                                        KOLUKTAK 1 :WELL
FLD         .                                                   :FIELD
LOC         .                                          UNKNOWN  :LOCATION
CNTY        .                                          UNKNOWN  :LOCATION
STAT        .                                          UNKNOWN  :STATE
CTRY        .                                          UNKNOWN  :COUNTRY
SRVC        .                                          UNKNOWN  :SERVICE COMPANY
DATE        .                                          19-1/-19 :LOG DATE
API         .                                    50119200010000 :API NUMBER
XCOORD      .                                     -84035.982000 :SURFACE X
YCOORD      .                                    5780930.296000 :SURFACE Y
LAT         .                                         69.752392 :LATITUDE
LON         .                                       -154.611139 :LONGITUDE
ELEV        .FT                                     -999.250000 :SURFACE ELEV
ELEV_TYPE   .                                      -999.250000KB :ELEV TYPE
~PARAMETER INFORMATION                                                          
#MNEM.UNIT        VALUE   DESCRIPTION                                           
#---------      --------  -----------                                           
ELEV    .F          313.0: KB ELEVATION                                         
TDD     .F      5877.5000: TOTAL DEPTH DRILLED
~OTHER INFORMATION                                                              
FLS0    .          CIRC                                                         
LGD0    .          10/15/76                                                     
MT0     .          GEL                                                          
FLS0    .          FLOWLONE                                                     
LGD0    .          12/24/76                                                     
MT0     .          GEL/DRISPAC                                                  
FLS0    .          FLOWLINE                                                     
LGD0    .          03/08/77                                                     
MT0     .          GEL-XP-20                                                    
FLS0    .          FLOWLINE                                                     
LGD0    .          03/15/77                                                     
MT0     .          GEL/XP-20   
~CURVE INFORMATION  
#MNEMONIC.UNIT               API CODE: CURVE DESCRIPTION
#------------------------------------------------------------------------------
DEPTH    .FT                  UNKNOWN: Measured Depth
CALI     .                    UNKNOWN: 
CNS      .                    UNKNOWN: 
DT       .                    UNKNOWN: 
GR       .GAPI                UNKNOWN: 
ILD      .OHMM                UNKNOWN: 
ILM      .OHMM                UNKNOWN: 
LL8      .                    UNKNOWN: 
LLD      .                    UNKNOWN: 
LLS      .                    UNKNOWN: 
RHOB     .                    UNKNOWN: 
SP       .MV                  UNKNOWN: 
~A      DEPTH         CALI          CNS           DT           GR          ILD          ILM          LL8          LLD          LLS         RHOB           SP
# ...
    2121.0000      13.9460      43.4580     119.9450      71.1390    -999.2500    -999.2500    -999.2500      12.4690       8.3980       2.2200    -999.2500
    2121.5000      11.4070      45.6050     120.0310      74.0900    -999.2500    -999.2500    -999.2500       9.6250       8.7110       2.2400    -999.2500
    2122.0000      11.0520      47.5910     118.4120      76.9960    -999.2500    -999.2500    -999.2500       9.1090       9.0390       2.2490    -999.2500
    2122.5000      11.2320      47.2770     113.5530      79.7860    -999.2500    -999.2500    -999.2500      10.5630       9.2110       2.2400    -999.2500
    2123.0000      11.4980      47.4560     107.1650      81.8400    -999.2500    -999.2500    -999.2500       9.2810       8.8750       2.2300    -999.2500
    2123.5000      11.7450      47.5870     102.0090      82.5130    -999.2500    -999.2500    -999.2500       9.1090       9.7340       2.2220    -999.2500
    2124.0000      10.5500      47.3440      94.8140      79.2490    -999.2500    -999.2500    -999.2500      12.2420      13.5630       2.2270    -999.2500
    2124.5000      11.7430      47.0090      96.7950      77.1790    -999.2500    -999.2500    -999.2500      13.6720      15.4220       2.2830    -999.2500
    2125.0000      12.8510      45.6530     100.8320      75.5460    -999.2500    -999.2500    -999.2500      16.4380      16.5940       2.3180    -999.2500
    2125.5000      12.2780      43.1170      93.6580      74.9900    -999.2500    -999.2500    -999.2500      19.4220      18.5470       2.3560    -999.2500
    2126.0000      12.0590      41.0170      84.6590      75.5450    -999.2500    -999.2500    -999.2500      26.0940      19.9530       2.3680    -999.2500
    2126.5000      12.2960      38.9170      86.2070      76.0470    -999.2500    -999.2500    -999.2500      24.2340      21.0940       2.4020    -999.2500
    2127.0000      12.8770      36.8170      89.7810      75.3470    -999.2500    -999.2500    -999.2500      27.5780      21.8910       2.4340    -999.2500
    2127.5000      13.2690      34.7170      83.6880      74.0340    -999.2500    -999.2500    -999.2500      31.9690      26.3130       2.4430    -999.2500
    2128.0000      12.6740      32.7150      77.1100      72.5610    -999.2500    -999.2500    -999.2500      35.6870      31.0630       2.4400    -999.2500
    2128.5000      11.4570      31.1620      76.0410      70.8530    -999.2500    -999.2500    -999.2500      41.3750      40.9370       2.4670    -999.2500
    2129.0000      10.8900      29.8020      77.6320      69.1450    -999.2500    -999.2500    -999.2500      50.6870      39.4690       2.4790    -999.2500
    2129.5000      11.3660      28.4430      79.3560      67.5180    -999.2500    -999.2500    -999.2500      52.5940      38.0310       2.4830    -999.2500
    2130.0000      11.2490      27.0830      81.3800      66.0070    -999.2500    -999.2500    -999.2500      52.5940      35.3440       2.4630    -999.2500
    2130.5000      11.1180      26.3960      83.4040      64.7170    -999.2500    -999.2500    -999.2500      47.0940      31.0630       2.4950    -999.2500
    2131.0000      11.4900      27.6350      86.1240      65.9390    -999.2500    -999.2500    -999.2500      42.1560      28.8590       2.4850    -999.2500
    2131.5000      11.9360      28.4640      84.7960      67.1840    -999.2500    -999.2500    -999.2500      37.7190      25.3590       2.4670    -999.2500
    2132.0000      11.8600      29.8440      82.7790      67.3440    -999.2500    -999.2500    -999.2500      29.1410      25.3590       2.4490    -999.2500
    2132.5000      11.7210      31.0910      79.4960      65.8860    -999.2500    -999.2500    -999.2500      30.7970      25.3590       2.4420    -999.2500
    2133.0000      11.5770      32.0490      76.5660      64.8690    -999.2500    -999.2500    -999.2500      35.0310      29.3910       2.4380    -999.2500
    2133.5000      11.4180      32.3790      75.0170      64.4440    -999.2500    -999.2500    -999.2500      50.6870      36.6560       2.4330    -999.2500
    2134.0000      11.1140      30.4100      73.7950      60.3370    -999.2500    -999.2500    -999.2500      59.8750      45.7190       2.4470    -999.2500
    2134.5000      10.7130      28.0590      73.7330      56.8800    -999.2500    -999.2500    -999.2500      60.9690      49.2190       2.5040    -999.2500
    2135.0000      10.6980      25.9080      73.7950      55.8550    -999.2500    -999.2500    -999.2500      62.1250      45.7190       2.5580    -999.2500
    2135.5000      10.6830      24.3400      74.3890      56.6400    -999.2500    -999.2500    -999.2500      60.9690      44.9060       2.5710    -999.2500
    2136.0000      10.9920      23.9660      74.9520      57.5290    -999.2500    -999.2500    -999.2500      59.8750      44.9060       2.5780    -999.2500
    2136.5000      11.0230      23.9080      75.1260      57.6270    -999.2500    -999.2500    -999.2500      63.2810      46.5940       2.5780    -999.2500
    2137.0000      10.9250      23.9530      75.2280      56.8770    -999.2500    -999.2500    -999.2500      65.6250      49.2190       2.5490    -999.2500
    2137.5000      10.8280      24.0250      75.0920      56.4000    -999.2500    -999.2500    -999.2500      66.8750      51.0620       2.5400    -999.2500
    2138.0000      10.8340      24.1250      74.9750      56.4660    -999.2500    -999.2500    -999.2500      68.1250      51.0620       2.5340    -999.2500
    2138.5000      10.8710      24.1910      74.8960      57.4340    -999.2500    -999.2500    -999.2500      68.1250      50.1560       2.5310    -999.2500
    2139.0000      10.9860      24.2100      75.0290      58.6750    -999.2500    -999.2500    -999.2500      65.6250      49.2190       2.5290    -999.2500
    2139.5000      11.0480      24.1500      75.2900      58.9520    -999.2500    -999.2500    -999.2500      64.4370      47.4370       2.5630    -999.2500
    2140.0000      10.9400      24.1350      75.5510      58.7630    -999.2500    -999.2500    -999.2500      60.9690      45.7190       2.5720    -999.2500
    2140.5000      10.8320      24.6630      76.0500      58.3650    -999.2500    -999.2500    -999.2500      58.7810      43.2810       2.5390    -999.2500
    2141.0000      10.8180      25.2130      77.2540      61.6390    -999.2500    -999.2500    -999.2500      54.5940      41.7190       2.5580    -999.2500
    2141.5000      10.8410      25.8010      78.9480      65.3970    -999.2500    -999.2500    -999.2500      52.5940      39.4690       2.5460    -999.2500
    2142.0000      10.8630      26.3890      80.7070      69.7880    -999.2500    -999.2500    -999.2500      48.8750      36.0000       2.5480    -999.2500
    2142.5000      10.8980      26.9760      82.4720      72.1180    -999.2500    -999.2500    -999.2500      49.7810      32.8120       2.5630    -999.2500
    2143.0000      11.1040      27.5640      84.2370      73.1190    -999.2500    -999.2500    -999.2500      37.0310      29.9380       2.5300    -999.2500
    2143.5000      11.5000      28.4810      83.1590      72.7970    -999.2500    -999.2500    -999.2500      35.0310      26.8130       2.5350    -999.2500
    2144.0000      11.6200      29.3500      81.5920      72.3680    -999.2500    -999.2500    -999.2500      35.0310      26.8130       2.5390    -999.2500
    2144.5000      11.2930      30.2190      80.5160      71.7810    -999.2500    -999.2500    -999.2500      37.0310      29.9380       2.5030    -999.2500
    2145.0000      11.2430      30.5660      83.0800      70.7410    -999.2500    -999.2500    -999.2500      37.7190      31.0630       2.4720    -999.2500
    2145.5000      10.9530      29.9400      85.4690      67.7220    -999.2500    -999.2500    -999.2500      39.1560      30.5000       2.4450    -999.2500
    2146.0000      11.0690      29.2640      88.6010      67.9010    -999.2500    -999.2500    -999.2500      39.1560      29.3910       2.4450    -999.2500
